[
  {
    "id": "ankara",
    "slug": "ankara",
    "city": "Ankara",
    "country": "Turkey",
    "description": "Enterprise solutions in Ankara for secure IT infrastructure, AI automation, and custom software development across Turkey and the Western Asia market.",
    "image": "./assets/local/default-city.jpg",
    "lat": 39.9334,
    "lng": 32.8597,
    "region": "Western Asia",
    "landmark": "Ankara business district"
  },
  {
    "id": "wichita",
    "slug": "wichita",
    "city": "Wichita",
    "country": "United States",
    "description": "Enterprise solutions in Wichita for secure IT infrastructure, AI automation, and custom software development across United States and the North America market.",
    "image": "./assets/local/default-city.jpg",
    "lat": 37.6872,
    "lng": -97.3301,
    "region": "North America",
    "landmark": "Wichita business district"
  },
  {
    "id": "tampa",
    "slug": "tampa",
    "city": "Tampa",
    "country": "United States",
    "description": "Enterprise solutions in Tampa for secure IT infrastructure, AI automation, and custom software development across United States and the North America market.",
    "image": "./assets/local/default-city.jpg",
    "lat": 27.9506,
    "lng": -82.4572,
    "region": "North America",
    "landmark": "Tampa business district"
  },
  {
    "id": "bakersfield",
    "slug": "bakersfield",
    "city": "Bakersfield",
    "country": "United States",
    "description": "Enterprise solutions in Bakersfield for secure IT infrastructure, AI automation, and custom software development across United States and the North America market.",
    "image": "./assets/local/default-city.jpg",
    "lat": 35.3733,
    "lng": -119.0187,
    "region": "North America",
    "landmark": "Bakersfield business district"
  },
  {
    "id": "tulsa",
    "slug": "tulsa",
    "city": "Tulsa",
    "country": "United States",
    "description": "Enterprise solutions in Tulsa for secure IT infrastructure, AI automation, and custom software development across United States and the North America market.",
    "image": "./assets/local/default-city.jpg",
    "lat": 36.154,
    "lng": -95.9928,
    "region": "North America",
    "landmark": "Tulsa business district"
  },
  {
    "id": "minneapolis",
    "slug": "minneapolis",
    "city": "Minneapolis",
    "country": "United States",
    "description": "Enterprise solutions in Minneapolis for secure IT infrastructure, AI automation, and custom software development across United States and the North America market.",
    "image": "./assets/local/default-city.jpg",
    "lat": 44.9778,
    "lng": -93.265,
    "region": "North America",
    "landmark": "Minneapolis business district"
  },
  {
    "id": "oakland",
    "slug": "oakland",
    "city": "Oakland",
    "country": "United States",
    "description": "Enterprise solutions in Oakland for secure IT infrastructure, AI automation, and custom software development across United States and the North America market.",
    "image": "./assets/local/default-city.jpg",
    "lat": 37.8044,
    "lng": -122.2711,
    "region": "North America",
    "landmark": "Oakland business district"
  },
  {
    "id": "long-beach",
    "slug": "long-beach",
    "city": "Long Beach",
    "country": "United States",
    "description": "Enterprise solutions in Long Beach for secure IT infrastructure, AI automation, and custom software development across United States and the North America market.",
    "image": "./assets/local/default-city.jpg",
    "lat": 33.7701,
    "lng": -118.1937,
    "region": "North America",
    "landmark": "Long Beach business district"
  },
  {
    "id": "miami",
    "slug": "miami",
    "city": "Miami",
    "country": "United States",
    "description": "Enterprise solutions in Miami for secure IT infrastructure, AI automation, and custom software development across United States and the North America market.",
    "image": "./assets/local/default-city.jpg",
    "lat": 25.7617,
    "lng": -80.1918,
    "region": "North America",
    "landmark": "Miami business district"
  },
  {
    "id": "raleigh",
    "slug": "raleigh",
    "city": "Raleigh",
    "country": "United States",
    "description": "Enterprise solutions in Raleigh for secure IT infrastructure, AI automation, and custom software development across United States and the North America market.",
    "image": "./assets/local/default-city.jpg",
    "lat": 35.7796,
    "lng": -78.6382,
    "region": "North America",
    "landmark": "Raleigh business district"
  },
  {
    "id": "omaha",
    "slug": "omaha",
    "city": "Omaha",
    "country": "United States",
    "description": "Enterprise solutions in Omaha for secure IT infrastructure, AI automation, and custom software development across United States and the North America market.",
    "image": "./assets/local/default-city.jpg",
    "lat": 41.2565,
    "lng": -95.9345,
    "region": "North America",
    "landmark": "Omaha business district"
  },
  {
    "id": "kansas-city",
    "slug": "kansas-city",
    "city": "Kansas City",
    "country": "United States",
    "description": "Enterprise solutions in Kansas City for secure IT infrastructure, AI automation, and custom software development across United States and the North America market.",
    "image": "./assets/local/default-city.jpg",
    "lat": 39.0997,
    "lng": -94.5786,
    "region": "North America",
    "landmark": "Kansas City business district"
  },
  {
    "id": "atlanta",
    "slug": "atlanta",
    "city": "Atlanta",
    "country": "United States",
    "description": "Enterprise solutions in Atlanta for secure IT infrastructure, AI automation, and custom software development across United States and the North America market.",
    "image": "./assets/local/default-city.jpg",
    "lat": 33.749,
    "lng": -84.388,
    "region": "North America",
    "landmark": "Atlanta business district"
  },
  {
    "id": "mesa",
    "slug": "mesa",
    "city": "Mesa",
    "country": "United States",
    "description": "Enterprise solutions in Mesa for secure IT infrastructure, AI automation, and custom software development across United States and the North America market.",
    "image": "./assets/local/default-city.jpg",
    "lat": 33.4151,
    "lng": -111.8314,
    "region": "North America",
    "landmark": "Mesa business district"
  },
  {
    "id": "sacramento",
    "slug": "sacramento",
    "city": "Sacramento",
    "country": "United States",
    "description": "Enterprise solutions in Sacramento for secure IT infrastructure, AI automation, and custom software development across United States and the North America market.",
    "image": "./assets/local/default-city.jpg",
    "lat": 38.5816,
    "lng": -121.4944,
    "region": "North America",
    "landmark": "Sacramento business district"
  },
  {
    "id": "fresno",
    "slug": "fresno",
    "city": "Fresno",
    "country": "United States",
    "description": "Enterprise solutions in Fresno for secure IT infrastructure, AI automation, and custom software development across United States and the North America market.",
    "image": "./assets/local/default-city.jpg",
    "lat": 36.7378,
    "lng": -119.7871,
    "region": "North America",
    "landmark": "Fresno business district"
  },
  {
    "id": "tucson",
    "slug": "tucson",
    "city": "Tucson",
    "country": "United States",
    "description": "Enterprise solutions in Tucson for secure IT infrastructure, AI automation, and custom software development across United States and the North America market.",
    "image": "./assets/local/default-city.jpg",
    "lat": 32.2226,
    "lng": -110.9747,
    "region": "North America",
    "landmark": "Tucson business district"
  },
  {
    "id": "albuquerque",
    "slug": "albuquerque",
    "city": "Albuquerque",
    "country": "United States",
    "description": "Enterprise solutions in Albuquerque for secure IT infrastructure, AI automation, and custom software development across United States and the North America market.",
    "image": "./assets/local/default-city.jpg",
    "lat": 35.0844,
    "lng": -106.6504,
    "region": "North America",
    "landmark": "Albuquerque business district"
  },
  {
    "id": "milwaukee",
    "slug": "milwaukee",
    "city": "Milwaukee",
    "country": "United States",
    "description": "Enterprise solutions in Milwaukee for secure IT infrastructure, AI automation, and custom software development across United States and the North America market.",
    "image": "./assets/local/default-city.jpg",
    "lat": 43.0389,
    "lng": -87.9065,
    "region": "North America",
    "landmark": "Milwaukee business district"
  },
  {
    "id": "baltimore",
    "slug": "baltimore",
    "city": "Baltimore",
    "country": "United States",
    "description": "Enterprise solutions in Baltimore for secure IT infrastructure, AI automation, and custom software development across United States and the North America market.",
    "image": "./assets/local/default-city.jpg",
    "lat": 39.2904,
    "lng": -76.6122,
    "region": "North America",
    "landmark": "Baltimore business district"
  },
  {
    "id": "memphis",
    "slug": "memphis",
    "city": "Memphis",
    "country": "United States",
    "description": "Enterprise solutions in Memphis for secure IT infrastructure, AI automation, and custom software development across United States and the North America market.",
    "image": "./assets/local/default-city.jpg",
    "lat": 35.1495,
    "lng": -90.049,
    "region": "North America",
    "landmark": "Memphis business district"
  },
  {
    "id": "louisville",
    "slug": "louisville",
    "city": "Louisville",
    "country": "United States",
    "description": "Enterprise solutions in Louisville for secure IT infrastructure, AI automation, and custom software development across United States and the North America market.",
    "image": "./assets/local/default-city.jpg",
    "lat": 38.2527,
    "lng": -85.7585,
    "region": "North America",
    "landmark": "Louisville business district"
  },
  {
    "id": "portland",
    "slug": "portland",
    "city": "Portland",
    "country": "United States",
    "description": "Enterprise solutions in Portland for secure IT infrastructure, AI automation, and custom software development across United States and the North America market.",
    "image": "./assets/local/default-city.jpg",
    "lat": 45.5051,
    "lng": -122.675,
    "region": "North America",
    "landmark": "Portland business district"
  },
  {
    "id": "detroit",
    "slug": "detroit",
    "city": "Detroit",
    "country": "United States",
    "description": "Enterprise solutions in Detroit for secure IT infrastructure, AI automation, and custom software development across United States and the North America market.",
    "image": "./assets/local/default-city.jpg",
    "lat": 42.3314,
    "lng": -83.0458,
    "region": "North America",
    "landmark": "Detroit business district"
  },
  {
    "id": "boston",
    "slug": "boston",
    "city": "Boston",
    "country": "United States",
    "description": "Enterprise solutions in Boston for secure IT infrastructure, AI automation, and custom software development across United States and the North America market.",
    "image": "./assets/local/default-city.jpg",
    "lat": 42.3601,
    "lng": -71.0589,
    "region": "North America",
    "landmark": "Boston business district"
  },
  {
    "id": "las-vegas",
    "slug": "las-vegas",
    "city": "Las Vegas",
    "country": "United States",
    "description": "Enterprise solutions in Las Vegas for secure IT infrastructure, AI automation, and custom software development across United States and the North America market.",
    "image": "./assets/local/default-city.jpg",
    "lat": 36.1699,
    "lng": -115.1398,
    "region": "North America",
    "landmark": "Las Vegas business district"
  },
  {
    "id": "el-paso",
    "slug": "el-paso",
    "city": "El Paso",
    "country": "United States",
    "description": "Enterprise solutions in El Paso for secure IT infrastructure, AI automation, and custom software development across United States and the North America market.",
    "image": "./assets/local/default-city.jpg",
    "lat": 31.7619,
    "lng": -106.485,
    "region": "North America",
    "landmark": "El Paso business district"
  },
  {
    "id": "washington",
    "slug": "washington",
    "city": "Washington",
    "country": "United States",
    "description": "Enterprise solutions in Washington for secure IT infrastructure, AI automation, and custom software development across United States and the North America market.",
    "image": "./assets/local/default-city.jpg",
    "lat": 38.9072,
    "lng": -77.0369,
    "region": "North America",
    "landmark": "Washington business district"
  },
  {
    "id": "nashville",
    "slug": "nashville",
    "city": "Nashville",
    "country": "United States",
    "description": "Enterprise solutions in Nashville for secure IT infrastructure, AI automation, and custom software development across United States and the North America market.",
    "image": "./assets/local/default-city.jpg",
    "lat": 36.1627,
    "lng": -86.7816,
    "region": "North America",
    "landmark": "Nashville business district"
  },
  {
    "id": "denver",
    "slug": "denver",
    "city": "Denver",
    "country": "United States",
    "description": "Enterprise solutions in Denver for secure IT infrastructure, AI automation, and custom software development across United States and the North America market.",
    "image": "./assets/local/default-city.jpg",
    "lat": 39.7392,
    "lng": -104.9903,
    "region": "North America",
    "landmark": "Denver business district"
  },
  {
    "id": "seattle",
    "slug": "seattle",
    "city": "Seattle",
    "country": "United States",
    "description": "Enterprise solutions in Seattle for secure IT infrastructure, AI automation, and custom software development across United States and the North America market.",
    "image": "./assets/local/default-city.jpg",
    "lat": 47.6062,
    "lng": -122.3321,
    "region": "North America",
    "landmark": "Seattle business district"
  },
  {
    "id": "charlotte",
    "slug": "charlotte",
    "city": "Charlotte",
    "country": "United States",
    "description": "Enterprise solutions in Charlotte for secure IT infrastructure, AI automation, and custom software development across United States and the North America market.",
    "image": "./assets/local/default-city.jpg",
    "lat": 35.2271,
    "lng": -80.8431,
    "region": "North America",
    "landmark": "Charlotte business district"
  },
  {
    "id": "columbus",
    "slug": "columbus",
    "city": "Columbus",
    "country": "United States",
    "description": "Enterprise solutions in Columbus for secure IT infrastructure, AI automation, and custom software development across United States and the North America market.",
    "image": "./assets/local/default-city.jpg",
    "lat": 39.9612,
    "lng": -82.9988,
    "region": "North America",
    "landmark": "Columbus business district"
  },
  {
    "id": "san-jose",
    "slug": "san-jose",
    "city": "San Jose",
    "country": "United States",
    "description": "Enterprise solutions in San Jose for secure IT infrastructure, AI automation, and custom software development across United States and the North America market.",
    "image": "./assets/local/default-city.jpg",
    "lat": 37.3382,
    "lng": -121.8863,
    "region": "North America",
    "landmark": "San Jose business district"
  },
  {
    "id": "fort-worth",
    "slug": "fort-worth",
    "city": "Fort Worth",
    "country": "United States",
    "description": "Enterprise solutions in Fort Worth for secure IT infrastructure, AI automation, and custom software development across United States and the North America market.",
    "image": "./assets/local/default-city.jpg",
    "lat": 32.7555,
    "lng": -97.3308,
    "region": "North America",
    "landmark": "Fort Worth business district"
  },
  {
    "id": "austin",
    "slug": "austin",
    "city": "Austin",
    "country": "United States",
    "description": "Enterprise solutions in Austin for secure IT infrastructure, AI automation, and custom software development across United States and the North America market.",
    "image": "./assets/local/default-city.jpg",
    "lat": 30.2672,
    "lng": -97.7431,
    "region": "North America",
    "landmark": "Austin business district"
  },
  {
    "id": "dallas",
    "slug": "dallas",
    "city": "Dallas",
    "country": "United States",
    "description": "Enterprise solutions in Dallas for secure IT infrastructure, AI automation, and custom software development across United States and the North America market.",
    "image": "./assets/local/default-city.jpg",
    "lat": 32.7767,
    "lng": -96.797,
    "region": "North America",
    "landmark": "Dallas business district"
  },
  {
    "id": "san-diego",
    "slug": "san-diego",
    "city": "San Diego",
    "country": "United States",
    "description": "Enterprise solutions in San Diego for secure IT infrastructure, AI automation, and custom software development across United States and the North America market.",
    "image": "./assets/local/default-city.jpg",
    "lat": 32.7157,
    "lng": -117.1611,
    "region": "North America",
    "landmark": "San Diego business district"
  },
  {
    "id": "san-antonio",
    "slug": "san-antonio",
    "city": "San Antonio",
    "country": "United States",
    "description": "Enterprise solutions in San Antonio for secure IT infrastructure, AI automation, and custom software development across United States and the North America market.",
    "image": "./assets/local/default-city.jpg",
    "lat": 29.4241,
    "lng": -98.4936,
    "region": "North America",
    "landmark": "San Antonio business district"
  },
  {
    "id": "phoenix",
    "slug": "phoenix",
    "city": "Phoenix",
    "country": "United States",
    "description": "Enterprise solutions in Phoenix for secure IT infrastructure, AI automation, and custom software development across United States and the North America market.",
    "image": "./assets/local/default-city.jpg",
    "lat": 33.4484,
    "lng": -112.074,
    "region": "North America",
    "landmark": "Phoenix business district"
  },
  {
    "id": "lviv",
    "slug": "lviv",
    "city": "Lviv",
    "country": "Ukraine",
    "description": "Enterprise solutions in Lviv for secure IT infrastructure, AI automation, and custom software development across Ukraine and the Eastern Europe market.",
    "image": "./assets/local/default-city.jpg",
    "lat": 49.8397,
    "lng": 24.0297,
    "region": "Eastern Europe",
    "landmark": "Lviv business district"
  },
  {
    "id": "zagreb",
    "slug": "zagreb",
    "city": "Zagreb",
    "country": "Croatia",
    "description": "Enterprise solutions in Zagreb for secure IT infrastructure, AI automation, and custom software development across Croatia and the Southern Europe market.",
    "image": "./assets/local/default-city.jpg",
    "lat": 45.815,
    "lng": 15.9819,
    "region": "Southern Europe",
    "landmark": "Zagreb business district"
  },
  {
    "id": "krakow",
    "slug": "krakow",
    "city": "Krakow",
    "country": "Poland",
    "description": "Enterprise solutions in Krakow for secure IT infrastructure, AI automation, and custom software development across Poland and the Eastern Europe market.",
    "image": "./assets/local/default-city.jpg",
    "lat": 50.0647,
    "lng": 19.945,
    "region": "Eastern Europe",
    "landmark": "Krakow business district"
  },
  {
    "id": "leeds",
    "slug": "leeds",
    "city": "Leeds",
    "country": "United Kingdom",
    "description": "Enterprise solutions in Leeds for secure IT infrastructure, AI automation, and custom software development across United Kingdom and the Western Europe market.",
    "image": "./assets/local/default-city.jpg",
    "lat": 53.8008,
    "lng": -1.5491,
    "region": "Western Europe",
    "landmark": "Leeds business district"
  },
  {
    "id": "turin",
    "slug": "turin",
    "city": "Turin",
    "country": "Italy",
    "description": "Enterprise solutions in Turin for secure IT infrastructure, AI automation, and custom software development across Italy and the Southern Europe market.",
    "image": "./assets/local/default-city.jpg",
    "lat": 45.0703,
    "lng": 7.6869,
    "region": "Southern Europe",
    "landmark": "Turin business district"
  },
  {
    "id": "naples",
    "slug": "naples",
    "city": "Naples",
    "country": "Italy",
    "description": "Enterprise solutions in Naples for secure IT infrastructure, AI automation, and custom software development across Italy and the Southern Europe market.",
    "image": "./assets/local/default-city.jpg",
    "lat": 40.8518,
    "lng": 14.2681,
    "region": "Southern Europe",
    "landmark": "Naples business district"
  },
  {
    "id": "odesa",
    "slug": "odesa",
    "city": "Odesa",
    "country": "Ukraine",
    "description": "Enterprise solutions in Odesa for secure IT infrastructure, AI automation, and custom software development across Ukraine and the Eastern Europe market.",
    "image": "./assets/local/default-city.jpg",
    "lat": 46.4825,
    "lng": 30.7233,
    "region": "Eastern Europe",
    "landmark": "Odesa business district"
  },
  {
    "id": "cologne",
    "slug": "cologne",
    "city": "Cologne",
    "country": "Germany",
    "description": "Enterprise solutions in Cologne for secure IT infrastructure, AI automation, and custom software development across Germany and the Western Europe market.",
    "image": "./assets/local/default-city.jpg",
    "lat": 50.9375,
    "lng": 6.9603,
    "region": "Western Europe",
    "landmark": "Cologne business district"
  },
  {
    "id": "sofia",
    "slug": "sofia",
    "city": "Sofia",
    "country": "Bulgaria",
    "description": "Enterprise solutions in Sofia for secure IT infrastructure, AI automation, and custom software development across Bulgaria and the Eastern Europe market.",
    "image": "./assets/local/default-city.jpg",
    "lat": 42.6977,
    "lng": 23.3219,
    "region": "Eastern Europe",
    "landmark": "Sofia business district"
  },
  {
    "id": "prague",
    "slug": "prague",
    "city": "Prague",
    "country": "Czechia",
    "description": "Enterprise solutions in Prague for secure IT infrastructure, AI automation, and custom software development across Czechia and the Eastern Europe market.",
    "image": "./assets/local/default-city.jpg",
    "lat": 50.0755,
    "lng": 14.4378,
    "region": "Eastern Europe",
    "landmark": "Prague business district"
  },
  {
    "id": "milan",
    "slug": "milan",
    "city": "Milan",
    "country": "Italy",
    "description": "Enterprise solutions in Milan for secure IT infrastructure, AI automation, and custom software development across Italy and the Southern Europe market.",
    "image": "./assets/local/default-city.jpg",
    "lat": 45.4642,
    "lng": 9.19,
    "region": "Southern Europe",
    "landmark": "Milan business district"
  },
  {
    "id": "munich",
    "slug": "munich",
    "city": "Munich",
    "country": "Germany",
    "description": "Enterprise solutions in Munich for secure IT infrastructure, AI automation, and custom software development across Germany and the Western Europe market.",
    "image": "./assets/local/default-city.jpg",
    "lat": 48.1351,
    "lng": 11.582,
    "region": "Western Europe",
    "landmark": "Munich business district"
  },
  {
    "id": "warsaw",
    "slug": "warsaw",
    "city": "Warsaw",
    "country": "Poland",
    "description": "Enterprise solutions in Warsaw for secure IT infrastructure, AI automation, and custom software development across Poland and the Eastern Europe market.",
    "image": "./assets/local/default-city.jpg",
    "lat": 52.2297,
    "lng": 21.0122,
    "region": "Eastern Europe",
    "landmark": "Warsaw business district"
  },
  {
    "id": "minsk",
    "slug": "minsk",
    "city": "Minsk",
    "country": "Belarus",
    "description": "Enterprise solutions in Minsk for secure IT infrastructure, AI automation, and custom software development across Belarus and the Eastern Europe market.",
    "image": "./assets/local/default-city.jpg",
    "lat": 53.9045,
    "lng": 27.5615,
    "region": "Eastern Europe",
    "landmark": "Minsk business district"
  },
  {
    "id": "vienna",
    "slug": "vienna",
    "city": "Vienna",
    "country": "Austria",
    "description": "Enterprise solutions in Vienna for secure IT infrastructure, AI automation, and custom software development across Austria and the Western Europe market.",
    "image": "./assets/local/default-city.jpg",
    "lat": 48.2082,
    "lng": 16.3738,
    "region": "Western Europe",
    "landmark": "Vienna business district"
  },
  {
    "id": "rome",
    "slug": "rome",
    "city": "Rome",
    "country": "Italy",
    "description": "Enterprise solutions in Rome for secure IT infrastructure, AI automation, and custom software development across Italy and the Southern Europe market.",
    "image": "./assets/local/default-city.jpg",
    "lat": 41.9028,
    "lng": 12.4964,
    "region": "Southern Europe",
    "landmark": "Rome business district"
  },
  {
    "id": "kyiv",
    "slug": "kyiv",
    "city": "Kyiv",
    "country": "Ukraine",
    "description": "Enterprise solutions in Kyiv for secure IT infrastructure, AI automation, and custom software development across Ukraine and the Eastern Europe market.",
    "image": "./assets/local/default-city.jpg",
    "lat": 50.4501,
    "lng": 30.5234,
    "region": "Eastern Europe",
    "landmark": "Kyiv business district"
  },
  {
    "id": "madrid",
    "slug": "madrid",
    "city": "Madrid",
    "country": "Spain",
    "description": "Enterprise solutions in Madrid for secure IT infrastructure, AI automation, and custom software development across Spain and the Southern Europe market.",
    "image": "./assets/local/default-city.jpg",
    "lat": 40.4168,
    "lng": -3.7038,
    "region": "Southern Europe",
    "landmark": "Madrid business district"
  },
  {
    "id": "saint-petersburg",
    "slug": "saint-petersburg",
    "city": "Saint Petersburg",
    "country": "Russia",
    "description": "Enterprise solutions in Saint Petersburg for secure IT infrastructure, AI automation, and custom software development across Russia and the Eastern Europe market.",
    "image": "./assets/local/default-city.jpg",
    "lat": 59.9343,
    "lng": 30.3351,
    "region": "Eastern Europe",
    "landmark": "Saint Petersburg business district"
  },
  {
    "id": "istanbul",
    "slug": "istanbul",
    "city": "Istanbul",
    "country": "Turkey",
    "description": "Enterprise solutions in Istanbul for secure IT infrastructure, AI automation, and custom software development across Turkey and the Europe market.",
    "image": "./assets/local/default-city.jpg",
    "lat": 41.0082,
    "lng": 28.9784,
    "region": "Europe",
    "landmark": "Istanbul business district"
  },
  {
    "id": "paris",
    "slug": "paris",
    "city": "Paris",
    "country": "France",
    "description": "Enterprise solutions in Paris for secure IT infrastructure, AI automation, and custom software development across France and the Western Europe market.",
    "image": "./assets/local/default-city.jpg",
    "lat": 48.8566,
    "lng": 2.3522,
    "region": "Western Europe",
    "landmark": "Eiffel Tower"
  },
  {
    "id": "berlin",
    "slug": "berlin",
    "city": "Berlin",
    "country": "Germany",
    "description": "Enterprise solutions in Berlin for secure IT infrastructure, AI automation, and custom software development across Germany and the DACH market.",
    "image": "./assets/local/default-city.jpg",
    "lat": 52.52,
    "lng": 13.405,
    "region": "DACH",
    "landmark": "Brandenburg Gate"
  },
  {
    "id": "london",
    "slug": "london",
    "city": "London",
    "country": "United Kingdom",
    "description": "Enterprise solutions in London for secure IT infrastructure, AI automation, and custom software development across United Kingdom and the Western Europe market.",
    "image": "./assets/local/default-city.jpg",
    "lat": 51.5074,
    "lng": -0.1278,
    "region": "Western Europe",
    "landmark": "Tower Bridge"
  },
  {
    "id": "monchengladbach",
    "slug": "monchengladbach",
    "city": "Mönchengladbach",
    "country": "Germany",
    "description": "Enterprise solutions in Mönchengladbach for secure IT infrastructure, AI automation, and custom software development across Germany and the DACH market.",
    "image": "./assets/local/default-city.jpg",
    "lat": 51.18539,
    "lng": 6.44172,
    "region": "DACH",
    "landmark": "Marktplatz",
    "legacySlugs": [
      "mnchengladbach"
    ]
  },
  {
    "id": "recklinghausen",
    "slug": "recklinghausen",
    "city": "Recklinghausen",
    "country": "Germany",
    "description": "Enterprise solutions in Recklinghausen for secure IT infrastructure, AI automation, and custom software development across Germany and the DACH market.",
    "image": "./assets/local/default-city.jpg",
    "lat": 51.61379,
    "lng": 7.19738,
    "region": "DACH",
    "landmark": "Marktplatz"
  },
  {
    "id": "gelsenkirchen",
    "slug": "gelsenkirchen",
    "city": "Gelsenkirchen",
    "country": "Germany",
    "description": "Enterprise solutions in Gelsenkirchen for secure IT infrastructure, AI automation, and custom software development across Germany and the DACH market.",
    "image": "./assets/local/default-city.jpg",
    "lat": 51.50508,
    "lng": 7.09654,
    "region": "DACH",
    "landmark": "Marktplatz"
  },
  {
    "id": "braunschweig",
    "slug": "braunschweig",
    "city": "Braunschweig",
    "country": "Germany",
    "description": "Enterprise solutions in Braunschweig for secure IT infrastructure, AI automation, and custom software development across Germany and the DACH market.",
    "image": "./assets/local/default-city.jpg",
    "lat": 52.31917,
    "lng": 10.55611,
    "region": "DACH",
    "landmark": "Marktplatz"
  },
  {
    "id": "ludwigshafen",
    "slug": "ludwigshafen",
    "city": "Ludwigshafen",
    "country": "Germany",
    "description": "Enterprise solutions in Ludwigshafen for secure IT infrastructure, AI automation, and custom software development across Germany and the DACH market.",
    "image": "./assets/local/default-city.jpg",
    "lat": 47.81663,
    "lng": 9.06138,
    "region": "DACH",
    "landmark": "Marktplatz"
  },
  {
    "id": "saarbrucken",
    "slug": "saarbrucken",
    "city": "Saarbrücken",
    "country": "Germany",
    "description": "Enterprise solutions in Saarbrücken for secure IT infrastructure, AI automation, and custom software development across Germany and the DACH market.",
    "image": "./assets/local/default-city.jpg",
    "lat": 49.23262,
    "lng": 7.00982,
    "region": "DACH",
    "landmark": "Marktplatz",
    "legacySlugs": [
      "saarbrcken"
    ]
  },
  {
    "id": "bremerhaven",
    "slug": "bremerhaven",
    "city": "Bremerhaven",
    "country": "Germany",
    "description": "Enterprise solutions in Bremerhaven for secure IT infrastructure, AI automation, and custom software development across Germany and the DACH market.",
    "image": "./assets/local/default-city.jpg",
    "lat": 53.50765,
    "lng": 8.57251,
    "region": "DACH",
    "landmark": "Marktplatz"
  },
  {
    "id": "st-gallen",
    "slug": "st-gallen",
    "city": "St. Gallen",
    "country": "Switzerland",
    "description": "Enterprise solutions in St. Gallen for secure IT infrastructure, AI automation, and custom software development across Switzerland and the DACH market.",
    "image": "./assets/local/default-city.jpg",
    "lat": 47.4245,
    "lng": 9.3767,
    "region": "DACH",
    "landmark": "St. Gallen business district"
  },
  {
    "id": "winterthur",
    "slug": "winterthur",
    "city": "Winterthur",
    "country": "Switzerland",
    "description": "Enterprise solutions in Winterthur for secure IT infrastructure, AI automation, and custom software development across Switzerland and the DACH market.",
    "image": "./assets/local/default-city.jpg",
    "lat": 47.4999,
    "lng": 8.7371,
    "region": "DACH",
    "landmark": "Winterthur business district"
  },
  {
    "id": "dusseldorf",
    "slug": "dusseldorf",
    "city": "Düsseldorf",
    "country": "Germany",
    "description": "Enterprise solutions in Düsseldorf for secure IT infrastructure, AI automation, and custom software development across Germany and the DACH market.",
    "image": "./assets/local/default-city.jpg",
    "lat": 51.22172,
    "lng": 6.77616,
    "region": "DACH",
    "landmark": "Marktplatz",
    "legacySlugs": [
      "dsseldorf"
    ]
  },
  {
    "id": "klagenfurt",
    "slug": "klagenfurt",
    "city": "Klagenfurt",
    "country": "Austria",
    "description": "Enterprise solutions in Klagenfurt for secure IT infrastructure, AI automation, and custom software development across Austria and the DACH market.",
    "image": "./assets/local/default-city.jpg",
    "lat": 46.62472,
    "lng": 14.30528,
    "region": "DACH",
    "landmark": "Klagenfurt business district"
  },
  {
    "id": "oberhausen",
    "slug": "oberhausen",
    "city": "Oberhausen",
    "country": "Germany",
    "description": "Enterprise solutions in Oberhausen for secure IT infrastructure, AI automation, and custom software development across Germany and the DACH market.",
    "image": "./assets/local/default-city.jpg",
    "lat": 51.47805,
    "lng": 6.8625,
    "region": "DACH",
    "landmark": "Marktplatz"
  },
  {
    "id": "leverkusen",
    "slug": "leverkusen",
    "city": "Leverkusen",
    "country": "Germany",
    "description": "Enterprise solutions in Leverkusen for secure IT infrastructure, AI automation, and custom software development across Germany and the DACH market.",
    "image": "./assets/local/default-city.jpg",
    "lat": 51.0303,
    "lng": 6.98432,
    "region": "DACH",
    "landmark": "Marktplatz"
  },
  {
    "id": "heidelberg",
    "slug": "heidelberg",
    "city": "Heidelberg",
    "country": "Germany",
    "description": "Enterprise solutions in Heidelberg for secure IT infrastructure, AI automation, and custom software development across Germany and the DACH market.",
    "image": "./assets/local/default-city.jpg",
    "lat": 49.40768,
    "lng": 8.69079,
    "region": "DACH",
    "landmark": "Marktplatz"
  },
  {
    "id": "regensburg",
    "slug": "regensburg",
    "city": "Regensburg",
    "country": "Germany",
    "description": "Enterprise solutions in Regensburg for secure IT infrastructure, AI automation, and custom software development across Germany and the DACH market.",
    "image": "./assets/local/default-city.jpg",
    "lat": 49.01513,
    "lng": 12.10161,
    "region": "DACH",
    "landmark": "Marktplatz"
  },
  {
    "id": "ingolstadt",
    "slug": "ingolstadt",
    "city": "Ingolstadt",
    "country": "Germany",
    "description": "Enterprise solutions in Ingolstadt for secure IT infrastructure, AI automation, and custom software development across Germany and the DACH market.",
    "image": "./assets/local/default-city.jpg",
    "lat": 48.76508,
    "lng": 11.42372,
    "region": "DACH",
    "landmark": "Marktplatz"
  },
  {
    "id": "reutlingen",
    "slug": "reutlingen",
    "city": "Reutlingen",
    "country": "Germany",
    "description": "Enterprise solutions in Reutlingen for secure IT infrastructure, AI automation, and custom software development across Germany and the DACH market.",
    "image": "./assets/local/default-city.jpg",
    "lat": 48.49144,
    "lng": 9.20427,
    "region": "DACH",
    "landmark": "Marktplatz"
  },
  {
    "id": "frankfurt",
    "slug": "frankfurt",
    "city": "Frankfurt",
    "country": "Germany",
    "description": "Enterprise solutions in Frankfurt for secure IT infrastructure, AI automation, and custom software development across Germany and the DACH market.",
    "image": "./assets/local/default-city.jpg",
    "lat": 52.34714,
    "lng": 14.55062,
    "region": "DACH",
    "landmark": "Marktplatz"
  },
  {
    "id": "stuttgart",
    "slug": "stuttgart",
    "city": "Stuttgart",
    "country": "Germany",
    "description": "Enterprise solutions in Stuttgart for secure IT infrastructure, AI automation, and custom software development across Germany and the DACH market.",
    "image": "./assets/local/default-city.jpg",
    "lat": 48.78232,
    "lng": 9.17702,
    "region": "DACH",
    "landmark": "Marktplatz"
  },
  {
    "id": "nuremberg",
    "slug": "nuremberg",
    "city": "Nuremberg",
    "country": "Germany",
    "description": "Enterprise solutions in Nuremberg for secure IT infrastructure, AI automation, and custom software development across Germany and the DACH market.",
    "image": "./assets/local/default-city.jpg",
    "lat": 49.45421,
    "lng": 11.07752,
    "region": "DACH",
    "landmark": "Marktplatz"
  },
  {
    "id": "wuppertal",
    "slug": "wuppertal",
    "city": "Wuppertal",
    "country": "Germany",
    "description": "Enterprise solutions in Wuppertal for secure IT infrastructure, AI automation, and custom software development across Germany and the DACH market.",
    "image": "./assets/local/default-city.jpg",
    "lat": 51.25627,
    "lng": 7.14816,
    "region": "DACH",
    "landmark": "Marktplatz"
  },
  {
    "id": "bielefeld",
    "slug": "bielefeld",
    "city": "Bielefeld",
    "country": "Germany",
    "description": "Enterprise solutions in Bielefeld for secure IT infrastructure, AI automation, and custom software development across Germany and the DACH market.",
    "image": "./assets/local/default-city.jpg",
    "lat": 52.03333,
    "lng": 8.53333,
    "region": "DACH",
    "landmark": "Marktplatz"
  },
  {
    "id": "karlsruhe",
    "slug": "karlsruhe",
    "city": "Karlsruhe",
    "country": "Germany",
    "description": "Enterprise solutions in Karlsruhe for secure IT infrastructure, AI automation, and custom software development across Germany and the DACH market.",
    "image": "./assets/local/default-city.jpg",
    "lat": 49.00937,
    "lng": 8.40444,
    "region": "DACH",
    "landmark": "Marktplatz"
  },
  {
    "id": "wiesbaden",
    "slug": "wiesbaden",
    "city": "Wiesbaden",
    "country": "Germany",
    "description": "Enterprise solutions in Wiesbaden for secure IT infrastructure, AI automation, and custom software development across Germany and the DACH market.",
    "image": "./assets/local/default-city.jpg",
    "lat": 50.08258,
    "lng": 8.24932,
    "region": "DACH",
    "landmark": "Marktplatz"
  },
  {
    "id": "innsbruck",
    "slug": "innsbruck",
    "city": "Innsbruck",
    "country": "Austria",
    "description": "Enterprise solutions in Innsbruck for secure IT infrastructure, AI automation, and custom software development across Austria and the DACH market.",
    "image": "./assets/local/default-city.jpg",
    "lat": 47.26266,
    "lng": 11.39454,
    "region": "DACH",
    "landmark": "Innsbruck business district"
  },
  {
    "id": "magdeburg",
    "slug": "magdeburg",
    "city": "Magdeburg",
    "country": "Germany",
    "description": "Enterprise solutions in Magdeburg for secure IT infrastructure, AI automation, and custom software development across Germany and the DACH market.",
    "image": "./assets/local/default-city.jpg",
    "lat": 52.12773,
    "lng": 11.62916,
    "region": "DACH",
    "landmark": "Marktplatz"
  },
  {
    "id": "oldenburg",
    "slug": "oldenburg",
    "city": "Oldenburg",
    "country": "Germany",
    "description": "Enterprise solutions in Oldenburg for secure IT infrastructure, AI automation, and custom software development across Germany and the DACH market.",
    "image": "./assets/local/default-city.jpg",
    "lat": 53.14118,
    "lng": 8.21467,
    "region": "DACH",
    "landmark": "Marktplatz"
  },
  {
    "id": "osnabruck",
    "slug": "osnabruck",
    "city": "Osnabrück",
    "country": "Germany",
    "description": "Enterprise solutions in Osnabrück for secure IT infrastructure, AI automation, and custom software development across Germany and the DACH market.",
    "image": "./assets/local/default-city.jpg",
    "lat": 52.27264,
    "lng": 8.0498,
    "region": "DACH",
    "landmark": "Marktplatz",
    "legacySlugs": [
      "osnabrck"
    ]
  },
  {
    "id": "darmstadt",
    "slug": "darmstadt",
    "city": "Darmstadt",
    "country": "Germany",
    "description": "Enterprise solutions in Darmstadt for secure IT infrastructure, AI automation, and custom software development across Germany and the DACH market.",
    "image": "./assets/local/default-city.jpg",
    "lat": 49.87167,
    "lng": 8.65027,
    "region": "DACH",
    "landmark": "Marktplatz"
  },
  {
    "id": "paderborn",
    "slug": "paderborn",
    "city": "Paderborn",
    "country": "Germany",
    "description": "Enterprise solutions in Paderborn for secure IT infrastructure, AI automation, and custom software development across Germany and the DACH market.",
    "image": "./assets/local/default-city.jpg",
    "lat": 51.71905,
    "lng": 8.75439,
    "region": "DACH",
    "landmark": "Marktplatz"
  },
  {
    "id": "wolfsburg",
    "slug": "wolfsburg",
    "city": "Wolfsburg",
    "country": "Germany",
    "description": "Enterprise solutions in Wolfsburg for secure IT infrastructure, AI automation, and custom software development across Germany and the DACH market.",
    "image": "./assets/local/default-city.jpg",
    "lat": 52.42452,
    "lng": 10.7815,
    "region": "DACH",
    "landmark": "Marktplatz"
  },
  {
    "id": "offenbach",
    "slug": "offenbach",
    "city": "Offenbach",
    "country": "Germany",
    "description": "Enterprise solutions in Offenbach for secure IT infrastructure, AI automation, and custom software development across Germany and the DACH market.",
    "image": "./assets/local/default-city.jpg",
    "lat": 50.10061,
    "lng": 8.76647,
    "region": "DACH",
    "landmark": "Marktplatz"
  },
  {
    "id": "heilbronn",
    "slug": "heilbronn",
    "city": "Heilbronn",
    "country": "Germany",
    "description": "Enterprise solutions in Heilbronn for secure IT infrastructure, AI automation, and custom software development across Germany and the DACH market.",
    "image": "./assets/local/default-city.jpg",
    "lat": 49.13995,
    "lng": 9.22054,
    "region": "DACH",
    "landmark": "Marktplatz"
  },
  {
    "id": "pforzheim",
    "slug": "pforzheim",
    "city": "Pforzheim",
    "country": "Germany",
    "description": "Enterprise solutions in Pforzheim for secure IT infrastructure, AI automation, and custom software development across Germany and the DACH market.",
    "image": "./assets/local/default-city.jpg",
    "lat": 48.88436,
    "lng": 8.69892,
    "region": "DACH",
    "landmark": "Marktplatz"
  },
  {
    "id": "gottingen",
    "slug": "gottingen",
    "city": "Göttingen",
    "country": "Germany",
    "description": "Enterprise solutions in Göttingen for secure IT infrastructure, AI automation, and custom software development across Germany and the DACH market.",
    "image": "./assets/local/default-city.jpg",
    "lat": 51.53443,
    "lng": 9.93228,
    "region": "DACH",
    "landmark": "Marktplatz",
    "legacySlugs": [
      "gttingen"
    ]
  },
  {
    "id": "lausanne",
    "slug": "lausanne",
    "city": "Lausanne",
    "country": "Switzerland",
    "description": "Enterprise solutions in Lausanne for secure IT infrastructure, AI automation, and custom software development across Switzerland and the DACH market.",
    "image": "./assets/local/default-city.jpg",
    "lat": 46.5197,
    "lng": 6.6323,
    "region": "DACH",
    "landmark": "Lausanne business district"
  },
  {
    "id": "dortmund",
    "slug": "dortmund",
    "city": "Dortmund",
    "country": "Germany",
    "description": "Enterprise solutions in Dortmund for secure IT infrastructure, AI automation, and custom software development across Germany and the DACH market.",
    "image": "./assets/local/default-city.jpg",
    "lat": 51.51494,
    "lng": 7.466,
    "region": "DACH",
    "landmark": "Marktplatz"
  },
  {
    "id": "duisburg",
    "slug": "duisburg",
    "city": "Duisburg",
    "country": "Germany",
    "description": "Enterprise solutions in Duisburg for secure IT infrastructure, AI automation, and custom software development across Germany and the DACH market.",
    "image": "./assets/local/default-city.jpg",
    "lat": 51.43247,
    "lng": 6.76516,
    "region": "DACH",
    "landmark": "Marktplatz"
  },
  {
    "id": "boulogne-billancourt",
    "slug": "boulogne-billancourt",
    "city": "Boulogne-Billancourt",
    "country": "France",
    "description": "Enterprise solutions in Boulogne-Billancourt for secure IT infrastructure, AI automation, and custom software development across France and the Western Europe market.",
    "image": "./assets/local/default-city.jpg",
    "lat": 48.83545,
    "lng": 2.24128,
    "region": "Western Europe",
    "landmark": "Old Town"
  },
  {
    "id": "kingston-upon-hull",
    "slug": "kingston-upon-hull",
    "city": "Kingston upon Hull",
    "country": "United Kingdom",
    "description": "Enterprise solutions in Kingston upon Hull for secure IT infrastructure, AI automation, and custom software development across United Kingdom and the Western Europe market.",
    "image": "./assets/local/default-city.jpg",
    "lat": 53.7446,
    "lng": -0.33525,
    "region": "Western Europe",
    "landmark": "City Centre"
  },
  {
    "id": "asnieres-sur-seine",
    "slug": "asnieres-sur-seine",
    "city": "Asnières-sur-Seine",
    "country": "France",
    "description": "Enterprise solutions in Asnières-sur-Seine for secure IT infrastructure, AI automation, and custom software development across France and the Western Europe market.",
    "image": "./assets/local/default-city.jpg",
    "lat": 48.91667,
    "lng": 2.28333,
    "region": "Western Europe",
    "landmark": "Old Town",
    "legacySlugs": [
      "asnires-sur-seine"
    ]
  },
  {
    "id": "clermont-ferrand",
    "slug": "clermont-ferrand",
    "city": "Clermont-Ferrand",
    "country": "France",
    "description": "Enterprise solutions in Clermont-Ferrand for secure IT infrastructure, AI automation, and custom software development across France and the Western Europe market.",
    "image": "./assets/local/default-city.jpg",
    "lat": 45.77969,
    "lng": 3.08682,
    "region": "Western Europe",
    "landmark": "Old Town"
  },
  {
    "id": "aulnay-sous-bois",
    "slug": "aulnay-sous-bois",
    "city": "Aulnay-sous-Bois",
    "country": "France",
    "description": "Enterprise solutions in Aulnay-sous-Bois for secure IT infrastructure, AI automation, and custom software development across France and the Western Europe market.",
    "image": "./assets/local/default-city.jpg",
    "lat": 48.93814,
    "lng": 2.49402,
    "region": "Western Europe",
    "landmark": "Old Town"
  },
  {
    "id": "southend-on-sea",
    "slug": "southend-on-sea",
    "city": "Southend-on-Sea",
    "country": "United Kingdom",
    "description": "Enterprise solutions in Southend-on-Sea for secure IT infrastructure, AI automation, and custom software development across United Kingdom and the Western Europe market.",
    "image": "./assets/local/default-city.jpg",
    "lat": 51.53782,
    "lng": 0.71433,
    "region": "Western Europe",
    "landmark": "City Centre"
  },
  {
    "id": "aix-en-provence",
    "slug": "aix-en-provence",
    "city": "Aix-en-Provence",
    "country": "France",
    "description": "Enterprise solutions in Aix-en-Provence for secure IT infrastructure, AI automation, and custom software development across France and the Western Europe market.",
    "image": "./assets/local/default-city.jpg",
    "lat": 43.5283,
    "lng": 5.44973,
    "region": "Western Europe",
    "landmark": "Old Town"
  },
  {
    "id": "vitry-sur-seine",
    "slug": "vitry-sur-seine",
    "city": "Vitry-sur-Seine",
    "country": "France",
    "description": "Enterprise solutions in Vitry-sur-Seine for secure IT infrastructure, AI automation, and custom software development across France and the Western Europe market.",
    "image": "./assets/local/default-city.jpg",
    "lat": 48.78716,
    "lng": 2.40332,
    "region": "Western Europe",
    "landmark": "Old Town"
  },
  {
    "id": "stoke-on-trent",
    "slug": "stoke-on-trent",
    "city": "Stoke-on-Trent",
    "country": "United Kingdom",
    "description": "Enterprise solutions in Stoke-on-Trent for secure IT infrastructure, AI automation, and custom software development across United Kingdom and the Western Europe market.",
    "image": "./assets/local/default-city.jpg",
    "lat": 53.00415,
    "lng": -2.18538,
    "region": "Western Europe",
    "landmark": "City Centre"
  },
  {
    "id": "wolverhampton",
    "slug": "wolverhampton",
    "city": "Wolverhampton",
    "country": "United Kingdom",
    "description": "Enterprise solutions in Wolverhampton for secure IT infrastructure, AI automation, and custom software development across United Kingdom and the Western Europe market.",
    "image": "./assets/local/default-city.jpg",
    "lat": 52.58547,
    "lng": -2.12296,
    "region": "Western Europe",
    "landmark": "City Centre"
  },
  {
    "id": "milton-keynes",
    "slug": "milton-keynes",
    "city": "Milton Keynes",
    "country": "United Kingdom",
    "description": "Enterprise solutions in Milton Keynes for secure IT infrastructure, AI automation, and custom software development across United Kingdom and the Western Europe market.",
    "image": "./assets/local/default-city.jpg",
    "lat": 52.04172,
    "lng": -0.75583,
    "region": "Western Europe",
    "landmark": "City Centre"
  },
  {
    "id": "saint-etienne",
    "slug": "saint-etienne",
    "city": "Saint-Étienne",
    "country": "France",
    "description": "Enterprise solutions in Saint-Étienne for secure IT infrastructure, AI automation, and custom software development across France and the Western Europe market.",
    "image": "./assets/local/default-city.jpg",
    "lat": 45.43389,
    "lng": 4.39,
    "region": "Western Europe",
    "landmark": "Old Town",
    "legacySlugs": [
      "saint-tienne"
    ]
  },
  {
    "id": "peterborough",
    "slug": "peterborough",
    "city": "Peterborough",
    "country": "United Kingdom",
    "description": "Enterprise solutions in Peterborough for secure IT infrastructure, AI automation, and custom software development across United Kingdom and the Western Europe market.",
    "image": "./assets/local/default-city.jpg",
    "lat": 52.57364,
    "lng": -0.24777,
    "region": "Western Europe",
    "landmark": "City Centre"
  },
  {
    "id": "villeurbanne",
    "slug": "villeurbanne",
    "city": "Villeurbanne",
    "country": "France",
    "description": "Enterprise solutions in Villeurbanne for secure IT infrastructure, AI automation, and custom software development across France and the Western Europe market.",
    "image": "./assets/local/default-city.jpg",
    "lat": 45.76601,
    "lng": 4.8795,
    "region": "Western Europe",
    "landmark": "Old Town"
  },
  {
    "id": "montpellier",
    "slug": "montpellier",
    "city": "Montpellier",
    "country": "France",
    "description": "Enterprise solutions in Montpellier for secure IT infrastructure, AI automation, and custom software development across France and the Western Europe market.",
    "image": "./assets/local/default-city.jpg",
    "lat": 43.6108,
    "lng": 3.8767,
    "region": "Western Europe",
    "landmark": "Old Town"
  },
  {
    "id": "southampton",
    "slug": "southampton",
    "city": "Southampton",
    "country": "United Kingdom",
    "description": "Enterprise solutions in Southampton for secure IT infrastructure, AI automation, and custom software development across United Kingdom and the Western Europe market.",
    "image": "./assets/local/default-city.jpg",
    "lat": 50.90395,
    "lng": -1.40428,
    "region": "Western Europe",
    "landmark": "City Centre"
  },
  {
    "id": "northampton",
    "slug": "northampton",
    "city": "Northampton",
    "country": "United Kingdom",
    "description": "Enterprise solutions in Northampton for secure IT infrastructure, AI automation, and custom software development across United Kingdom and the Western Europe market.",
    "image": "./assets/local/default-city.jpg",
    "lat": 52.25,
    "lng": -0.88333,
    "region": "Western Europe",
    "landmark": "City Centre"
  },
  {
    "id": "bournemouth",
    "slug": "bournemouth",
    "city": "Bournemouth",
    "country": "United Kingdom",
    "description": "Enterprise solutions in Bournemouth for secure IT infrastructure, AI automation, and custom software development across United Kingdom and the Western Europe market.",
    "image": "./assets/local/default-city.jpg",
    "lat": 50.72048,
    "lng": -1.8795,
    "region": "Western Europe",
    "landmark": "City Centre"
  },
  {
    "id": "birmingham",
    "slug": "birmingham",
    "city": "Birmingham",
    "country": "United Kingdom",
    "description": "Enterprise solutions in Birmingham for secure IT infrastructure, AI automation, and custom software development across United Kingdom and the Western Europe market.",
    "image": "./assets/local/default-city.jpg",
    "lat": 52.4862,
    "lng": -1.8904,
    "region": "Western Europe",
    "landmark": "City Centre"
  },
  {
    "id": "manchester",
    "slug": "manchester",
    "city": "Manchester",
    "country": "United Kingdom",
    "description": "Enterprise solutions in Manchester for secure IT infrastructure, AI automation, and custom software development across United Kingdom and the Western Europe market.",
    "image": "./assets/local/default-city.jpg",
    "lat": 53.4808,
    "lng": -2.2426,
    "region": "Western Europe",
    "landmark": "City Centre"
  },
  {
    "id": "strasbourg",
    "slug": "strasbourg",
    "city": "Strasbourg",
    "country": "France",
    "description": "Enterprise solutions in Strasbourg for secure IT infrastructure, AI automation, and custom software development across France and the Western Europe market.",
    "image": "./assets/local/default-city.jpg",
    "lat": 48.5734,
    "lng": 7.7521,
    "region": "Western Europe",
    "landmark": "Old Town"
  },
  {
    "id": "sunderland",
    "slug": "sunderland",
    "city": "Sunderland",
    "country": "United Kingdom",
    "description": "Enterprise solutions in Sunderland for secure IT infrastructure, AI automation, and custom software development across United Kingdom and the Western Europe market.",
    "image": "./assets/local/default-city.jpg",
    "lat": 54.90465,
    "lng": -1.38222,
    "region": "Western Europe",
    "landmark": "City Centre"
  },
  {
    "id": "nottingham",
    "slug": "nottingham",
    "city": "Nottingham",
    "country": "United Kingdom",
    "description": "Enterprise solutions in Nottingham for secure IT infrastructure, AI automation, and custom software development across United Kingdom and the Western Europe market.",
    "image": "./assets/local/default-city.jpg",
    "lat": 52.9536,
    "lng": -1.15047,
    "region": "Western Europe",
    "landmark": "City Centre"
  },
  {
    "id": "portsmouth",
    "slug": "portsmouth",
    "city": "Portsmouth",
    "country": "United Kingdom",
    "description": "Enterprise solutions in Portsmouth for secure IT infrastructure, AI automation, and custom software development across United Kingdom and the Western Europe market.",
    "image": "./assets/local/default-city.jpg",
    "lat": 50.79899,
    "lng": -1.09125,
    "region": "Western Europe",
    "landmark": "City Centre"
  },
  {
    "id": "warrington",
    "slug": "warrington",
    "city": "Warrington",
    "country": "United Kingdom",
    "description": "Enterprise solutions in Warrington for secure IT infrastructure, AI automation, and custom software development across United Kingdom and the Western Europe market.",
    "image": "./assets/local/default-city.jpg",
    "lat": 53.39254,
    "lng": -2.58024,
    "region": "Western Europe",
    "landmark": "City Centre"
  },
  {
    "id": "courbevoie",
    "slug": "courbevoie",
    "city": "Courbevoie",
    "country": "France",
    "description": "Enterprise solutions in Courbevoie for secure IT infrastructure, AI automation, and custom software development across France and the Western Europe market.",
    "image": "./assets/local/default-city.jpg",
    "lat": 48.89672,
    "lng": 2.25666,
    "region": "Western Europe",
    "landmark": "Old Town"
  },
  {
    "id": "versailles",
    "slug": "versailles",
    "city": "Versailles",
    "country": "France",
    "description": "Enterprise solutions in Versailles for secure IT infrastructure, AI automation, and custom software development across France and the Western Europe market.",
    "image": "./assets/local/default-city.jpg",
    "lat": 48.80359,
    "lng": 2.13424,
    "region": "Western Europe",
    "landmark": "Old Town"
  },
  {
    "id": "amsterdam",
    "slug": "amsterdam",
    "city": "Amsterdam",
    "country": "Netherlands",
    "description": "Enterprise solutions in Amsterdam for secure IT infrastructure, AI automation, and custom software development across Netherlands and the Western Europe market.",
    "image": "./assets/local/default-city.jpg",
    "lat": 52.3676,
    "lng": 4.9041,
    "region": "Western Europe",
    "landmark": "Rijksmuseum"
  },
  {
    "id": "edinburgh",
    "slug": "edinburgh",
    "city": "Edinburgh",
    "country": "United Kingdom",
    "description": "Enterprise solutions in Edinburgh for secure IT infrastructure, AI automation, and custom software development across United Kingdom and the Western Europe market.",
    "image": "./assets/local/default-city.jpg",
    "lat": 55.9533,
    "lng": -3.1883,
    "region": "Western Europe",
    "landmark": "City Centre"
  },
  {
    "id": "liverpool",
    "slug": "liverpool",
    "city": "Liverpool",
    "country": "United Kingdom",
    "description": "Enterprise solutions in Liverpool for secure IT infrastructure, AI automation, and custom software development across United Kingdom and the Western Europe market.",
    "image": "./assets/local/default-city.jpg",
    "lat": 53.4084,
    "lng": -2.9916,
    "region": "Western Europe",
    "landmark": "City Centre"
  },
  {
    "id": "marseille",
    "slug": "marseille",
    "city": "Marseille",
    "country": "France",
    "description": "Enterprise solutions in Marseille for secure IT infrastructure, AI automation, and custom software development across France and the Western Europe market.",
    "image": "./assets/local/default-city.jpg",
    "lat": 43.2965,
    "lng": 5.3698,
    "region": "Western Europe",
    "landmark": "Old Town"
  },
  {
    "id": "rotterdam",
    "slug": "rotterdam",
    "city": "Rotterdam",
    "country": "Netherlands",
    "description": "Enterprise solutions in Rotterdam for secure IT infrastructure, AI automation, and custom software development across Netherlands and the Western Europe market.",
    "image": "./assets/local/default-city.jpg",
    "lat": 51.9244,
    "lng": 4.4777,
    "region": "Western Europe",
    "landmark": "Rotterdam business district"
  },
  {
    "id": "the-hague",
    "slug": "the-hague",
    "city": "The Hague",
    "country": "Netherlands",
    "description": "Enterprise solutions in The Hague for secure IT infrastructure, AI automation, and custom software development across Netherlands and the Western Europe market.",
    "image": "./assets/local/default-city.jpg",
    "lat": 52.0705,
    "lng": 4.3007,
    "region": "Western Europe",
    "landmark": "The Hague business district"
  },
  {
    "id": "sheffield",
    "slug": "sheffield",
    "city": "Sheffield",
    "country": "United Kingdom",
    "description": "Enterprise solutions in Sheffield for secure IT infrastructure, AI automation, and custom software development across United Kingdom and the Western Europe market.",
    "image": "./assets/local/default-city.jpg",
    "lat": 53.38297,
    "lng": -1.4659,
    "region": "Western Europe",
    "landmark": "City Centre"
  },
  {
    "id": "leicester",
    "slug": "leicester",
    "city": "Leicester",
    "country": "United Kingdom",
    "description": "Enterprise solutions in Leicester for secure IT infrastructure, AI automation, and custom software development across United Kingdom and the Western Europe market.",
    "image": "./assets/local/default-city.jpg",
    "lat": 52.6386,
    "lng": -1.13169,
    "region": "Western Europe",
    "landmark": "City Centre"
  },
  {
    "id": "doncaster",
    "slug": "doncaster",
    "city": "Doncaster",
    "country": "United Kingdom",
    "description": "Enterprise solutions in Doncaster for secure IT infrastructure, AI automation, and custom software development across United Kingdom and the Western Europe market.",
    "image": "./assets/local/default-city.jpg",
    "lat": 53.52285,
    "lng": -1.13116,
    "region": "Western Europe",
    "landmark": "City Centre"
  },
  {
    "id": "stockport",
    "slug": "stockport",
    "city": "Stockport",
    "country": "United Kingdom",
    "description": "Enterprise solutions in Stockport for secure IT infrastructure, AI automation, and custom software development across United Kingdom and the Western Europe market.",
    "image": "./assets/local/default-city.jpg",
    "lat": 53.40979,
    "lng": -2.15761,
    "region": "Western Europe",
    "landmark": "City Centre"
  },
  {
    "id": "newcastle",
    "slug": "newcastle",
    "city": "Newcastle",
    "country": "United Kingdom",
    "description": "Enterprise solutions in Newcastle for secure IT infrastructure, AI automation, and custom software development across United Kingdom and the Western Europe market.",
    "image": "./assets/local/default-city.jpg",
    "lat": 54.21804,
    "lng": -5.88979,
    "region": "Western Europe",
    "landmark": "City Centre"
  },
  {
    "id": "rotherham",
    "slug": "rotherham",
    "city": "Rotherham",
    "country": "United Kingdom",
    "description": "Enterprise solutions in Rotherham for secure IT infrastructure, AI automation, and custom software development across United Kingdom and the Western Europe market.",
    "image": "./assets/local/default-city.jpg",
    "lat": 53.43012,
    "lng": -1.35678,
    "region": "Western Europe",
    "landmark": "City Centre"
  },
  {
    "id": "st-helens",
    "slug": "st-helens",
    "city": "St Helens",
    "country": "United Kingdom",
    "description": "Enterprise solutions in St Helens for secure IT infrastructure, AI automation, and custom software development across United Kingdom and the Western Europe market.",
    "image": "./assets/local/default-city.jpg",
    "lat": 53.45,
    "lng": -2.73333,
    "region": "Western Europe",
    "landmark": "City Centre"
  },
  {
    "id": "eindhoven",
    "slug": "eindhoven",
    "city": "Eindhoven",
    "country": "Netherlands",
    "description": "Enterprise solutions in Eindhoven for secure IT infrastructure, AI automation, and custom software development across Netherlands and the Western Europe market.",
    "image": "./assets/local/default-city.jpg",
    "lat": 51.44083,
    "lng": 5.47778,
    "region": "Western Europe",
    "landmark": "Eindhoven business district"
  },
  {
    "id": "groningen",
    "slug": "groningen",
    "city": "Groningen",
    "country": "Netherlands",
    "description": "Enterprise solutions in Groningen for secure IT infrastructure, AI automation, and custom software development across Netherlands and the Western Europe market.",
    "image": "./assets/local/default-city.jpg",
    "lat": 53.21917,
    "lng": 6.56667,
    "region": "Western Europe",
    "landmark": "Groningen business district"
  },
  {
    "id": "charleroi",
    "slug": "charleroi",
    "city": "Charleroi",
    "country": "Belgium",
    "description": "Enterprise solutions in Charleroi for secure IT infrastructure, AI automation, and custom software development across Belgium and the Western Europe market.",
    "image": "./assets/local/default-city.jpg",
    "lat": 50.41136,
    "lng": 4.44448,
    "region": "Western Europe",
    "landmark": "Charleroi business district"
  },
  {
    "id": "perpignan",
    "slug": "perpignan",
    "city": "Perpignan",
    "country": "France",
    "description": "Enterprise solutions in Perpignan for secure IT infrastructure, AI automation, and custom software development across France and the Western Europe market.",
    "image": "./assets/local/default-city.jpg",
    "lat": 42.69764,
    "lng": 2.89541,
    "region": "Western Europe",
    "landmark": "Old Town"
  },
  {
    "id": "reggio-calabria",
    "slug": "reggio-calabria",
    "city": "Reggio Calabria",
    "country": "Italy",
    "description": "Enterprise solutions in Reggio Calabria for secure IT infrastructure, AI automation, and custom software development across Italy and the Southern Europe market.",
    "image": "./assets/local/default-city.jpg",
    "lat": 38.11047,
    "lng": 15.66129,
    "region": "Southern Europe",
    "landmark": "Piazza Centrale"
  },
  {
    "id": "vitoria-gasteiz",
    "slug": "vitoria-gasteiz",
    "city": "Vitoria-Gasteiz",
    "country": "Spain",
    "description": "Enterprise solutions in Vitoria-Gasteiz for secure IT infrastructure, AI automation, and custom software development across Spain and the Southern Europe market.",
    "image": "./assets/local/default-city.jpg",
    "lat": 42.84998,
    "lng": -2.67268,
    "region": "Southern Europe",
    "landmark": "Vitoria-Gasteiz business district"
  },
  {
    "id": "reggio-emilia",
    "slug": "reggio-emilia",
    "city": "Reggio Emilia",
    "country": "Italy",
    "description": "Enterprise solutions in Reggio Emilia for secure IT infrastructure, AI automation, and custom software development across Italy and the Southern Europe market.",
    "image": "./assets/local/default-city.jpg",
    "lat": 44.69825,
    "lng": 10.63125,
    "region": "Southern Europe",
    "landmark": "Piazza Centrale"
  },
  {
    "id": "agualva-cacem",
    "slug": "agualva-cacem",
    "city": "Agualva-Cacém",
    "country": "Portugal",
    "description": "Enterprise solutions in Agualva-Cacém for secure IT infrastructure, AI automation, and custom software development across Portugal and the Southern Europe market.",
    "image": "./assets/local/default-city.jpg",
    "lat": 38.77,
    "lng": -9.2989,
    "region": "Southern Europe",
    "landmark": "Agualva-Cacém business district",
    "legacySlugs": [
      "agualva-cacm"
    ]
  },
  {
    "id": "lhospitalet",
    "slug": "lhospitalet",
    "city": "L'Hospitalet",
    "country": "Spain",
    "description": "Enterprise solutions in L'Hospitalet for secure IT infrastructure, AI automation, and custom software development across Spain and the Southern Europe market.",
    "image": "./assets/local/default-city.jpg",
    "lat": 41.35967,
    "lng": 2.10028,
    "region": "Southern Europe",
    "landmark": "L'Hospitalet business district"
  },
  {
    "id": "las-palmas",
    "slug": "las-palmas",
    "city": "Las Palmas",
    "country": "Spain",
    "description": "Enterprise solutions in Las Palmas for secure IT infrastructure, AI automation, and custom software development across Spain and the Southern Europe market.",
    "image": "./assets/local/default-city.jpg",
    "lat": 28.1235,
    "lng": -15.4363,
    "region": "Southern Europe",
    "landmark": "Las Palmas business district"
  },
  {
    "id": "valladolid",
    "slug": "valladolid",
    "city": "Valladolid",
    "country": "Spain",
    "description": "Enterprise solutions in Valladolid for secure IT infrastructure, AI automation, and custom software development across Spain and the Southern Europe market.",
    "image": "./assets/local/default-city.jpg",
    "lat": 41.65518,
    "lng": -4.72372,
    "region": "Southern Europe",
    "landmark": "Valladolid business district"
  },
  {
    "id": "santa-cruz",
    "slug": "santa-cruz",
    "city": "Santa Cruz",
    "country": "Spain",
    "description": "Enterprise solutions in Santa Cruz for secure IT infrastructure, AI automation, and custom software development across Spain and the Southern Europe market.",
    "image": "./assets/local/default-city.jpg",
    "lat": 28.46824,
    "lng": -16.25462,
    "region": "Southern Europe",
    "landmark": "Santa Cruz business district"
  },
  {
    "id": "barcelona",
    "slug": "barcelona",
    "city": "Barcelona",
    "country": "Spain",
    "description": "Enterprise solutions in Barcelona for secure IT infrastructure, AI automation, and custom software development across Spain and the Southern Europe market.",
    "image": "./assets/local/default-city.jpg",
    "lat": 41.3851,
    "lng": 2.1734,
    "region": "Southern Europe",
    "landmark": "Sagrada Familia"
  },
  {
    "id": "cartagena",
    "slug": "cartagena",
    "city": "Cartagena",
    "country": "Spain",
    "description": "Enterprise solutions in Cartagena for secure IT infrastructure, AI automation, and custom software development across Spain and the Southern Europe market.",
    "image": "./assets/local/default-city.jpg",
    "lat": 37.60197,
    "lng": -0.98397,
    "region": "Southern Europe",
    "landmark": "Cartagena business district"
  },
  {
    "id": "valencia",
    "slug": "valencia",
    "city": "Valencia",
    "country": "Spain",
    "description": "Enterprise solutions in Valencia for secure IT infrastructure, AI automation, and custom software development across Spain and the Southern Europe market.",
    "image": "./assets/local/default-city.jpg",
    "lat": 39.4699,
    "lng": -0.3763,
    "region": "Southern Europe",
    "landmark": "Valencia business district"
  },
  {
    "id": "florence",
    "slug": "florence",
    "city": "Florence",
    "country": "Italy",
    "description": "Enterprise solutions in Florence for secure IT infrastructure, AI automation, and custom software development across Italy and the Southern Europe market.",
    "image": "./assets/local/default-city.jpg",
    "lat": 43.77925,
    "lng": 11.24626,
    "region": "Southern Europe",
    "landmark": "Piazza Centrale"
  },
  {
    "id": "cagliari",
    "slug": "cagliari",
    "city": "Cagliari",
    "country": "Italy",
    "description": "Enterprise solutions in Cagliari for secure IT infrastructure, AI automation, and custom software development across Italy and the Southern Europe market.",
    "image": "./assets/local/default-city.jpg",
    "lat": 39.23054,
    "lng": 9.11917,
    "region": "Southern Europe",
    "landmark": "Piazza Centrale"
  },
  {
    "id": "zaragoza",
    "slug": "zaragoza",
    "city": "Zaragoza",
    "country": "Spain",
    "description": "Enterprise solutions in Zaragoza for secure IT infrastructure, AI automation, and custom software development across Spain and the Southern Europe market.",
    "image": "./assets/local/default-city.jpg",
    "lat": 41.65606,
    "lng": -0.87734,
    "region": "Southern Europe",
    "landmark": "Zaragoza business district"
  },
  {
    "id": "alicante",
    "slug": "alicante",
    "city": "Alicante",
    "country": "Spain",
    "description": "Enterprise solutions in Alicante for secure IT infrastructure, AI automation, and custom software development across Spain and the Southern Europe market.",
    "image": "./assets/local/default-city.jpg",
    "lat": 38.34517,
    "lng": -0.48149,
    "region": "Southern Europe",
    "landmark": "Alicante business district"
  },
  {
    "id": "a-coruna",
    "slug": "a-coruna",
    "city": "A Coruña",
    "country": "Spain",
    "description": "Enterprise solutions in A Coruña for secure IT infrastructure, AI automation, and custom software development across Spain and the Southern Europe market.",
    "image": "./assets/local/default-city.jpg",
    "lat": 43.37135,
    "lng": -8.396,
    "region": "Southern Europe",
    "landmark": "A Coruña business district",
    "legacySlugs": [
      "a-corua"
    ]
  },
  {
    "id": "terrassa",
    "slug": "terrassa",
    "city": "Terrassa",
    "country": "Spain",
    "description": "Enterprise solutions in Terrassa for secure IT infrastructure, AI automation, and custom software development across Spain and the Southern Europe market.",
    "image": "./assets/local/default-city.jpg",
    "lat": 41.56667,
    "lng": 2.01667,
    "region": "Southern Europe",
    "landmark": "Terrassa business district"
  },
  {
    "id": "badalona",
    "slug": "badalona",
    "city": "Badalona",
    "country": "Spain",
    "description": "Enterprise solutions in Badalona for secure IT infrastructure, AI automation, and custom software development across Spain and the Southern Europe market.",
    "image": "./assets/local/default-city.jpg",
    "lat": 41.45004,
    "lng": 2.24741,
    "region": "Southern Europe",
    "landmark": "Badalona business district"
  },
  {
    "id": "sabadell",
    "slug": "sabadell",
    "city": "Sabadell",
    "country": "Spain",
    "description": "Enterprise solutions in Sabadell for secure IT infrastructure, AI automation, and custom software development across Spain and the Southern Europe market.",
    "image": "./assets/local/default-city.jpg",
    "lat": 41.54329,
    "lng": 2.10942,
    "region": "Southern Europe",
    "landmark": "Sabadell business district"
  },
  {
    "id": "mostoles",
    "slug": "mostoles",
    "city": "Móstoles",
    "country": "Spain",
    "description": "Enterprise solutions in Móstoles for secure IT infrastructure, AI automation, and custom software development across Spain and the Southern Europe market.",
    "image": "./assets/local/default-city.jpg",
    "lat": 40.32234,
    "lng": -3.86496,
    "region": "Southern Europe",
    "landmark": "Móstoles business district",
    "legacySlugs": [
      "mstoles"
    ]
  },
  {
    "id": "pamplona",
    "slug": "pamplona",
    "city": "Pamplona",
    "country": "Spain",
    "description": "Enterprise solutions in Pamplona for secure IT infrastructure, AI automation, and custom software development across Spain and the Southern Europe market.",
    "image": "./assets/local/default-city.jpg",
    "lat": 42.81687,
    "lng": -1.64323,
    "region": "Southern Europe",
    "landmark": "Pamplona business district"
  },
  {
    "id": "palermo",
    "slug": "palermo",
    "city": "Palermo",
    "country": "Italy",
    "description": "Enterprise solutions in Palermo for secure IT infrastructure, AI automation, and custom software development across Italy and the Southern Europe market.",
    "image": "./assets/local/default-city.jpg",
    "lat": 38.1166,
    "lng": 13.3636,
    "region": "Southern Europe",
    "landmark": "Piazza Centrale"
  },
  {
    "id": "bologna",
    "slug": "bologna",
    "city": "Bologna",
    "country": "Italy",
    "description": "Enterprise solutions in Bologna for secure IT infrastructure, AI automation, and custom software development across Italy and the Southern Europe market.",
    "image": "./assets/local/default-city.jpg",
    "lat": 44.49381,
    "lng": 11.33875,
    "region": "Southern Europe",
    "landmark": "Piazza Centrale"
  },
  {
    "id": "catania",
    "slug": "catania",
    "city": "Catania",
    "country": "Italy",
    "description": "Enterprise solutions in Catania for secure IT infrastructure, AI automation, and custom software development across Italy and the Southern Europe market.",
    "image": "./assets/local/default-city.jpg",
    "lat": 37.49223,
    "lng": 15.07041,
    "region": "Southern Europe",
    "landmark": "Piazza Centrale"
  },
  {
    "id": "messina",
    "slug": "messina",
    "city": "Messina",
    "country": "Italy",
    "description": "Enterprise solutions in Messina for secure IT infrastructure, AI automation, and custom software development across Italy and the Southern Europe market.",
    "image": "./assets/local/default-city.jpg",
    "lat": 38.19394,
    "lng": 15.55256,
    "region": "Southern Europe",
    "landmark": "Piazza Centrale"
  },
  {
    "id": "trieste",
    "slug": "trieste",
    "city": "Trieste",
    "country": "Italy",
    "description": "Enterprise solutions in Trieste for secure IT infrastructure, AI automation, and custom software development across Italy and the Southern Europe market.",
    "image": "./assets/local/default-city.jpg",
    "lat": 45.64953,
    "lng": 13.77678,
    "region": "Southern Europe",
    "landmark": "Piazza Centrale"
  },
  {
    "id": "taranto",
    "slug": "taranto",
    "city": "Taranto",
    "country": "Italy",
    "description": "Enterprise solutions in Taranto for secure IT infrastructure, AI automation, and custom software development across Italy and the Southern Europe market.",
    "image": "./assets/local/default-city.jpg",
    "lat": 40.46438,
    "lng": 17.24707,
    "region": "Southern Europe",
    "landmark": "Piazza Centrale"
  },
  {
    "id": "brescia",
    "slug": "brescia",
    "city": "Brescia",
    "country": "Italy",
    "description": "Enterprise solutions in Brescia for secure IT infrastructure, AI automation, and custom software development across Italy and the Southern Europe market.",
    "image": "./assets/local/default-city.jpg",
    "lat": 45.53558,
    "lng": 10.21472,
    "region": "Southern Europe",
    "landmark": "Piazza Centrale"
  },
  {
    "id": "perugia",
    "slug": "perugia",
    "city": "Perugia",
    "country": "Italy",
    "description": "Enterprise solutions in Perugia for secure IT infrastructure, AI automation, and custom software development across Italy and the Southern Europe market.",
    "image": "./assets/local/default-city.jpg",
    "lat": 43.1122,
    "lng": 12.38878,
    "region": "Southern Europe",
    "landmark": "Piazza Centrale"
  },
  {
    "id": "ravenna",
    "slug": "ravenna",
    "city": "Ravenna",
    "country": "Italy",
    "description": "Enterprise solutions in Ravenna for secure IT infrastructure, AI automation, and custom software development across Italy and the Southern Europe market.",
    "image": "./assets/local/default-city.jpg",
    "lat": 44.41344,
    "lng": 12.20121,
    "region": "Southern Europe",
    "landmark": "Piazza Centrale"
  },
  {
    "id": "livorno",
    "slug": "livorno",
    "city": "Livorno",
    "country": "Italy",
    "description": "Enterprise solutions in Livorno for secure IT infrastructure, AI automation, and custom software development across Italy and the Southern Europe market.",
    "image": "./assets/local/default-city.jpg",
    "lat": 43.54427,
    "lng": 10.32615,
    "region": "Southern Europe",
    "landmark": "Piazza Centrale"
  },
  {
    "id": "salerno",
    "slug": "salerno",
    "city": "Salerno",
    "country": "Italy",
    "description": "Enterprise solutions in Salerno for secure IT infrastructure, AI automation, and custom software development across Italy and the Southern Europe market.",
    "image": "./assets/local/default-city.jpg",
    "lat": 40.67545,
    "lng": 14.79328,
    "region": "Southern Europe",
    "landmark": "Piazza Centrale"
  },
  {
    "id": "ferrara",
    "slug": "ferrara",
    "city": "Ferrara",
    "country": "Italy",
    "description": "Enterprise solutions in Ferrara for secure IT infrastructure, AI automation, and custom software development across Italy and the Southern Europe market.",
    "image": "./assets/local/default-city.jpg",
    "lat": 44.83804,
    "lng": 11.62057,
    "region": "Southern Europe",
    "landmark": "Piazza Centrale"
  },
  {
    "id": "seville",
    "slug": "seville",
    "city": "Seville",
    "country": "Spain",
    "description": "Enterprise solutions in Seville for secure IT infrastructure, AI automation, and custom software development across Spain and the Southern Europe market.",
    "image": "./assets/local/default-city.jpg",
    "lat": 37.38283,
    "lng": -5.97317,
    "region": "Southern Europe",
    "landmark": "Seville business district"
  },
  {
    "id": "cordoba",
    "slug": "cordoba",
    "city": "Córdoba",
    "country": "Spain",
    "description": "Enterprise solutions in Córdoba for secure IT infrastructure, AI automation, and custom software development across Spain and the Southern Europe market.",
    "image": "./assets/local/default-city.jpg",
    "lat": 37.89155,
    "lng": -4.77275,
    "region": "Southern Europe",
    "landmark": "Córdoba business district",
    "legacySlugs": [
      "crdoba"
    ]
  },
  {
    "id": "granada",
    "slug": "granada",
    "city": "Granada",
    "country": "Spain",
    "description": "Enterprise solutions in Granada for secure IT infrastructure, AI automation, and custom software development across Spain and the Southern Europe market.",
    "image": "./assets/local/default-city.jpg",
    "lat": 37.18817,
    "lng": -3.60667,
    "region": "Southern Europe",
    "landmark": "Granada business district"
  },
  {
    "id": "almeria",
    "slug": "almeria",
    "city": "Almería",
    "country": "Spain",
    "description": "Enterprise solutions in Almería for secure IT infrastructure, AI automation, and custom software development across Spain and the Southern Europe market.",
    "image": "./assets/local/default-city.jpg",
    "lat": 36.83814,
    "lng": -2.45974,
    "region": "Southern Europe",
    "landmark": "Almería business district",
    "legacySlugs": [
      "almera"
    ]
  },
  {
    "id": "amadora",
    "slug": "amadora",
    "city": "Amadora",
    "country": "Portugal",
    "description": "Enterprise solutions in Amadora for secure IT infrastructure, AI automation, and custom software development across Portugal and the Southern Europe market.",
    "image": "./assets/local/default-city.jpg",
    "lat": 38.75382,
    "lng": -9.23083,
    "region": "Southern Europe",
    "landmark": "Amadora business district"
  },
  {
    "id": "funchal",
    "slug": "funchal",
    "city": "Funchal",
    "country": "Portugal",
    "description": "Enterprise solutions in Funchal for secure IT infrastructure, AI automation, and custom software development across Portugal and the Southern Europe market.",
    "image": "./assets/local/default-city.jpg",
    "lat": 32.66568,
    "lng": -16.92547,
    "region": "Southern Europe",
    "landmark": "Funchal business district"
  },
  {
    "id": "kristiansand",
    "slug": "kristiansand",
    "city": "Kristiansand",
    "country": "Norway",
    "description": "Enterprise solutions in Kristiansand for secure IT infrastructure, AI automation, and custom software development across Norway and the Scandinavia market.",
    "image": "./assets/local/default-city.jpg",
    "lat": 58.14671,
    "lng": 7.9956,
    "region": "Scandinavia",
    "landmark": "Kristiansand business district"
  },
  {
    "id": "helsingborg",
    "slug": "helsingborg",
    "city": "Helsingborg",
    "country": "Sweden",
    "description": "Enterprise solutions in Helsingborg for secure IT infrastructure, AI automation, and custom software development across Sweden and the Scandinavia market.",
    "image": "./assets/local/default-city.jpg",
    "lat": 56.04673,
    "lng": 12.69437,
    "region": "Scandinavia",
    "landmark": "Helsingborg business district"
  },
  {
    "id": "fredrikstad",
    "slug": "fredrikstad",
    "city": "Fredrikstad",
    "country": "Norway",
    "description": "Enterprise solutions in Fredrikstad for secure IT infrastructure, AI automation, and custom software development across Norway and the Scandinavia market.",
    "image": "./assets/local/default-city.jpg",
    "lat": 59.2181,
    "lng": 10.9298,
    "region": "Scandinavia",
    "landmark": "Fredrikstad business district"
  },
  {
    "id": "gothenburg",
    "slug": "gothenburg",
    "city": "Gothenburg",
    "country": "Sweden",
    "description": "Enterprise solutions in Gothenburg for secure IT infrastructure, AI automation, and custom software development across Sweden and the Scandinavia market.",
    "image": "./assets/local/default-city.jpg",
    "lat": 57.7089,
    "lng": 11.9746,
    "region": "Scandinavia",
    "landmark": "Gothenburg business district"
  },
  {
    "id": "norrkoping",
    "slug": "norrkoping",
    "city": "Norrköping",
    "country": "Sweden",
    "description": "Enterprise solutions in Norrköping for secure IT infrastructure, AI automation, and custom software development across Sweden and the Scandinavia market.",
    "image": "./assets/local/default-city.jpg",
    "lat": 58.59419,
    "lng": 16.1826,
    "region": "Scandinavia",
    "landmark": "Norrköping business district",
    "legacySlugs": [
      "norrkping"
    ]
  },
  {
    "id": "copenhagen",
    "slug": "copenhagen",
    "city": "Copenhagen",
    "country": "Denmark",
    "description": "Enterprise solutions in Copenhagen for secure IT infrastructure, AI automation, and custom software development across Denmark and the Scandinavia market.",
    "image": "./assets/local/default-city.jpg",
    "lat": 55.67594,
    "lng": 12.56553,
    "region": "Scandinavia",
    "landmark": "Copenhagen business district"
  },
  {
    "id": "stockholm",
    "slug": "stockholm",
    "city": "Stockholm",
    "country": "Sweden",
    "description": "Enterprise solutions in Stockholm for secure IT infrastructure, AI automation, and custom software development across Sweden and the Scandinavia market.",
    "image": "./assets/local/default-city.jpg",
    "lat": 59.3293,
    "lng": 18.0686,
    "region": "Scandinavia",
    "landmark": "Stockholm business district"
  },
  {
    "id": "linkoping",
    "slug": "linkoping",
    "city": "Linköping",
    "country": "Sweden",
    "description": "Enterprise solutions in Linköping for secure IT infrastructure, AI automation, and custom software development across Sweden and the Scandinavia market.",
    "image": "./assets/local/default-city.jpg",
    "lat": 58.41086,
    "lng": 15.62157,
    "region": "Scandinavia",
    "landmark": "Linköping business district",
    "legacySlugs": [
      "linkping"
    ]
  },
  {
    "id": "jonkoping",
    "slug": "jonkoping",
    "city": "Jönköping",
    "country": "Sweden",
    "description": "Enterprise solutions in Jönköping for secure IT infrastructure, AI automation, and custom software development across Sweden and the Scandinavia market.",
    "image": "./assets/local/default-city.jpg",
    "lat": 57.78145,
    "lng": 14.15618,
    "region": "Scandinavia",
    "landmark": "Jönköping business district",
    "legacySlugs": [
      "jnkping"
    ]
  },
  {
    "id": "trondheim",
    "slug": "trondheim",
    "city": "Trondheim",
    "country": "Norway",
    "description": "Enterprise solutions in Trondheim for secure IT infrastructure, AI automation, and custom software development across Norway and the Scandinavia market.",
    "image": "./assets/local/default-city.jpg",
    "lat": 63.43049,
    "lng": 10.39506,
    "region": "Scandinavia",
    "landmark": "Trondheim business district"
  },
  {
    "id": "stavanger",
    "slug": "stavanger",
    "city": "Stavanger",
    "country": "Norway",
    "description": "Enterprise solutions in Stavanger for secure IT infrastructure, AI automation, and custom software development across Norway and the Scandinavia market.",
    "image": "./assets/local/default-city.jpg",
    "lat": 58.97005,
    "lng": 5.73332,
    "region": "Scandinavia",
    "landmark": "Stavanger business district"
  },
  {
    "id": "jyvaskyla",
    "slug": "jyvaskyla",
    "city": "Jyväskylä",
    "country": "Finland",
    "description": "Enterprise solutions in Jyväskylä for secure IT infrastructure, AI automation, and custom software development across Finland and the Scandinavia market.",
    "image": "./assets/local/default-city.jpg",
    "lat": 62.24147,
    "lng": 25.72088,
    "region": "Scandinavia",
    "landmark": "Jyväskylä business district",
    "legacySlugs": [
      "jyvskyl"
    ]
  },
  {
    "id": "vasteras",
    "slug": "vasteras",
    "city": "Västerås",
    "country": "Sweden",
    "description": "Enterprise solutions in Västerås for secure IT infrastructure, AI automation, and custom software development across Sweden and the Scandinavia market.",
    "image": "./assets/local/default-city.jpg",
    "lat": 59.61617,
    "lng": 16.55276,
    "region": "Scandinavia",
    "landmark": "Västerås business district",
    "legacySlugs": [
      "vsters"
    ]
  },
  {
    "id": "helsinki",
    "slug": "helsinki",
    "city": "Helsinki",
    "country": "Finland",
    "description": "Enterprise solutions in Helsinki for secure IT infrastructure, AI automation, and custom software development across Finland and the Scandinavia market.",
    "image": "./assets/local/default-city.jpg",
    "lat": 60.53756,
    "lng": 27.10173,
    "region": "Scandinavia",
    "landmark": "Helsinki business district"
  },
  {
    "id": "uppsala",
    "slug": "uppsala",
    "city": "Uppsala",
    "country": "Sweden",
    "description": "Enterprise solutions in Uppsala for secure IT infrastructure, AI automation, and custom software development across Sweden and the Scandinavia market.",
    "image": "./assets/local/default-city.jpg",
    "lat": 59.85882,
    "lng": 17.63889,
    "region": "Scandinavia",
    "landmark": "Uppsala business district"
  },
  {
    "id": "drammen",
    "slug": "drammen",
    "city": "Drammen",
    "country": "Norway",
    "description": "Enterprise solutions in Drammen for secure IT infrastructure, AI automation, and custom software development across Norway and the Scandinavia market.",
    "image": "./assets/local/default-city.jpg",
    "lat": 59.74389,
    "lng": 10.20449,
    "region": "Scandinavia",
    "landmark": "Drammen business district"
  },
  {
    "id": "sandnes",
    "slug": "sandnes",
    "city": "Sandnes",
    "country": "Norway",
    "description": "Enterprise solutions in Sandnes for secure IT infrastructure, AI automation, and custom software development across Norway and the Scandinavia market.",
    "image": "./assets/local/default-city.jpg",
    "lat": 58.85244,
    "lng": 5.73521,
    "region": "Scandinavia",
    "landmark": "Sandnes business district"
  },
  {
    "id": "aalborg",
    "slug": "aalborg",
    "city": "Aalborg",
    "country": "Denmark",
    "description": "Enterprise solutions in Aalborg for secure IT infrastructure, AI automation, and custom software development across Denmark and the Scandinavia market.",
    "image": "./assets/local/default-city.jpg",
    "lat": 57.048,
    "lng": 9.9187,
    "region": "Scandinavia",
    "landmark": "Aalborg business district"
  },
  {
    "id": "tampere",
    "slug": "tampere",
    "city": "Tampere",
    "country": "Finland",
    "description": "Enterprise solutions in Tampere for secure IT infrastructure, AI automation, and custom software development across Finland and the Scandinavia market.",
    "image": "./assets/local/default-city.jpg",
    "lat": 61.49911,
    "lng": 23.78712,
    "region": "Scandinavia",
    "landmark": "Tampere business district"
  },
  {
    "id": "ceske-budejovice",
    "slug": "ceske-budejovice",
    "city": "Ceske Budejovice",
    "country": "Czech Republic",
    "description": "Enterprise solutions in Ceske Budejovice for secure IT infrastructure, AI automation, and custom software development across Czech Republic and the Eastern Europe market.",
    "image": "./assets/local/default-city.jpg",
    "lat": 48.97447,
    "lng": 14.47434,
    "region": "Eastern Europe",
    "landmark": "Ceske Budejovice business district"
  },
  {
    "id": "hradec-kralove",
    "slug": "hradec-kralove",
    "city": "Hradec Kralove",
    "country": "Czech Republic",
    "description": "Enterprise solutions in Hradec Kralove for secure IT infrastructure, AI automation, and custom software development across Czech Republic and the Eastern Europe market.",
    "image": "./assets/local/default-city.jpg",
    "lat": 50.20923,
    "lng": 15.83277,
    "region": "Eastern Europe",
    "landmark": "Hradec Kralove business district"
  },
  {
    "id": "usti-nad-labem",
    "slug": "usti-nad-labem",
    "city": "Usti nad Labem",
    "country": "Czech Republic",
    "description": "Enterprise solutions in Usti nad Labem for secure IT infrastructure, AI automation, and custom software development across Czech Republic and the Eastern Europe market.",
    "image": "./assets/local/default-city.jpg",
    "lat": 50.6607,
    "lng": 14.03227,
    "region": "Eastern Europe",
    "landmark": "Usti nad Labem business district"
  },
  {
    "id": "szekesfehervar",
    "slug": "szekesfehervar",
    "city": "Székesfehérvár",
    "country": "Hungary",
    "description": "Enterprise solutions in Székesfehérvár for secure IT infrastructure, AI automation, and custom software development across Hungary and the Eastern Europe market.",
    "image": "./assets/local/default-city.jpg",
    "lat": 47.18995,
    "lng": 18.41034,
    "region": "Eastern Europe",
    "landmark": "Székesfehérvár business district",
    "legacySlugs": [
      "szkesfehrvr"
    ]
  },
  {
    "id": "czestochowa",
    "slug": "czestochowa",
    "city": "Czestochowa",
    "country": "Poland",
    "description": "Enterprise solutions in Czestochowa for secure IT infrastructure, AI automation, and custom software development across Poland and the Eastern Europe market.",
    "image": "./assets/local/default-city.jpg",
    "lat": 50.79646,
    "lng": 19.12409,
    "region": "Eastern Europe",
    "landmark": "Czestochowa business district"
  },
  {
    "id": "nyiregyhaza",
    "slug": "nyiregyhaza",
    "city": "Nyíregyháza",
    "country": "Hungary",
    "description": "Enterprise solutions in Nyíregyháza for secure IT infrastructure, AI automation, and custom software development across Hungary and the Eastern Europe market.",
    "image": "./assets/local/default-city.jpg",
    "lat": 47.95539,
    "lng": 21.71671,
    "region": "Eastern Europe",
    "landmark": "Nyíregyháza business district",
    "legacySlugs": [
      "nyregyhza"
    ]
  },
  {
    "id": "cluj-napoca",
    "slug": "cluj-napoca",
    "city": "Cluj-Napoca",
    "country": "Romania",
    "description": "Enterprise solutions in Cluj-Napoca for secure IT infrastructure, AI automation, and custom software development across Romania and the Eastern Europe market.",
    "image": "./assets/local/default-city.jpg",
    "lat": 46.76667,
    "lng": 23.6,
    "region": "Eastern Europe",
    "landmark": "Cluj-Napoca business district"
  },
  {
    "id": "bratislava",
    "slug": "bratislava",
    "city": "Bratislava",
    "country": "Slovakia",
    "description": "Enterprise solutions in Bratislava for secure IT infrastructure, AI automation, and custom software development across Slovakia and the Eastern Europe market.",
    "image": "./assets/local/default-city.jpg",
    "lat": 48.1486,
    "lng": 17.1077,
    "region": "Eastern Europe",
    "landmark": "Bratislava business district"
  },
  {
    "id": "bucharest",
    "slug": "bucharest",
    "city": "Bucharest",
    "country": "Romania",
    "description": "Enterprise solutions in Bucharest for secure IT infrastructure, AI automation, and custom software development across Romania and the Eastern Europe market.",
    "image": "./assets/local/default-city.jpg",
    "lat": 44.4268,
    "lng": 26.1025,
    "region": "Eastern Europe",
    "landmark": "Bucharest business district"
  },
  {
    "id": "ljubljana",
    "slug": "ljubljana",
    "city": "Ljubljana",
    "country": "Slovenia",
    "description": "Enterprise solutions in Ljubljana for secure IT infrastructure, AI automation, and custom software development across Slovenia and the Eastern Europe market.",
    "image": "./assets/local/default-city.jpg",
    "lat": 46.0569,
    "lng": 14.5058,
    "region": "Eastern Europe",
    "landmark": "Ljubljana business district"
  },
  {
    "id": "bydgoszcz",
    "slug": "bydgoszcz",
    "city": "Bydgoszcz",
    "country": "Poland",
    "description": "Enterprise solutions in Bydgoszcz for secure IT infrastructure, AI automation, and custom software development across Poland and the Eastern Europe market.",
    "image": "./assets/local/default-city.jpg",
    "lat": 53.1235,
    "lng": 18.00762,
    "region": "Eastern Europe",
    "landmark": "Bydgoszcz business district"
  },
  {
    "id": "bialystok",
    "slug": "bialystok",
    "city": "Bialystok",
    "country": "Poland",
    "description": "Enterprise solutions in Bialystok for secure IT infrastructure, AI automation, and custom software development across Poland and the Eastern Europe market.",
    "image": "./assets/local/default-city.jpg",
    "lat": 53.13333,
    "lng": 23.16433,
    "region": "Eastern Europe",
    "landmark": "Bialystok business district"
  },
  {
    "id": "sosnowiec",
    "slug": "sosnowiec",
    "city": "Sosnowiec",
    "country": "Poland",
    "description": "Enterprise solutions in Sosnowiec for secure IT infrastructure, AI automation, and custom software development across Poland and the Eastern Europe market.",
    "image": "./assets/local/default-city.jpg",
    "lat": 50.28682,
    "lng": 19.10385,
    "region": "Eastern Europe",
    "landmark": "Sosnowiec business district"
  },
  {
    "id": "pardubice",
    "slug": "pardubice",
    "city": "Pardubice",
    "country": "Czech Republic",
    "description": "Enterprise solutions in Pardubice for secure IT infrastructure, AI automation, and custom software development across Czech Republic and the Eastern Europe market.",
    "image": "./assets/local/default-city.jpg",
    "lat": 50.04075,
    "lng": 15.77659,
    "region": "Eastern Europe",
    "landmark": "Pardubice business district"
  },
  {
    "id": "kecskemet",
    "slug": "kecskemet",
    "city": "Kecskemét",
    "country": "Hungary",
    "description": "Enterprise solutions in Kecskemét for secure IT infrastructure, AI automation, and custom software development across Hungary and the Eastern Europe market.",
    "image": "./assets/local/default-city.jpg",
    "lat": 46.90618,
    "lng": 19.69128,
    "region": "Eastern Europe",
    "landmark": "Kecskemét business district",
    "legacySlugs": [
      "kecskemt"
    ]
  },
  {
    "id": "timisoara",
    "slug": "timisoara",
    "city": "Timisoara",
    "country": "Romania",
    "description": "Enterprise solutions in Timisoara for secure IT infrastructure, AI automation, and custom software development across Romania and the Eastern Europe market.",
    "image": "./assets/local/default-city.jpg",
    "lat": 45.75372,
    "lng": 21.22571,
    "region": "Eastern Europe",
    "landmark": "Timisoara business district"
  },
  {
    "id": "constanta",
    "slug": "constanta",
    "city": "Constanta",
    "country": "Romania",
    "description": "Enterprise solutions in Constanta for secure IT infrastructure, AI automation, and custom software development across Romania and the Eastern Europe market.",
    "image": "./assets/local/default-city.jpg",
    "lat": 44.18073,
    "lng": 28.63432,
    "region": "Eastern Europe",
    "landmark": "Constanta business district"
  },
  {
    "id": "belgrade",
    "slug": "belgrade",
    "city": "Belgrade",
    "country": "Serbia",
    "description": "Enterprise solutions in Belgrade for secure IT infrastructure, AI automation, and custom software development across Serbia and the Eastern Europe market.",
    "image": "./assets/local/default-city.jpg",
    "lat": 44.7866,
    "lng": 20.4489,
    "region": "Eastern Europe",
    "landmark": "Belgrade business district"
  },