[
  {
    "id": "london",
    "city": "London",
    "country": "United Kingdom",
    "market": "Europe",
    "lat": 51.5074,
    "lng": -0.1278
  },
  {
    "id": "istanbul",
    "city": "Istanbul",
    "country": "Turkey",
    "market": "Europe",
    "lat": 41.0082,
    "lng": 28.9784
  },
  {
    "id": "paris",
    "city": "Paris",
    "country": "France",
    "market": "Europe",
    "lat": 48.8566,
    "lng": 2.3522
  },
  {
    "id": "madrid",
    "city": "Madrid",
    "country": "Spain",
    "market": "Europe",
    "lat": 40.4168,
    "lng": -3.7038
  },
  {
    "id": "berlin",
    "city": "Berlin",
    "country": "Germany",
    "market": "Europe",
    "lat": 52.52,
    "lng": 13.405
  },
  {
    "id": "rome",
    "city": "Rome",
    "country": "Italy",
    "market": "Europe",
    "lat": 41.9028,
    "lng": 12.4964
  },
  {
    "id": "barcelona",
    "city": "Barcelona",
    "country": "Spain",
    "market": "Europe",
    "lat": 41.3874,
    "lng": 2.1686
  },
  {
    "id": "milan",
    "city": "Milan",
    "country": "Italy",
    "market": "Europe",
    "lat": 45.4642,
    "lng": 9.19
  },
  {
    "id": "naples",
    "city": "Naples",
    "country": "Italy",
    "market": "Europe",
    "lat": 40.8518,
    "lng": 14.2681
  },
  {
    "id": "athens",
    "city": "Athens",
    "country": "Greece",
    "market": "Europe",
    "lat": 37.9838,
    "lng": 23.7275
  },
  {
    "id": "hamburg",
    "city": "Hamburg",
    "country": "Germany",
    "market": "Europe",
    "lat": 53.5511,
    "lng": 9.9937
  },
  {
    "id": "munich",
    "city": "Munich",
    "country": "Germany",
    "market": "Europe",
    "lat": 48.1351,
    "lng": 11.582
  },
  {
    "id": "vienna",
    "city": "Vienna",
    "country": "Austria",
    "market": "Europe",
    "lat": 48.2082,
    "lng": 16.3738
  },
  {
    "id": "warsaw",
    "city": "Warsaw",
    "country": "Poland",
    "market": "Europe",
    "lat": 52.2297,
    "lng": 21.0122
  },
  {
    "id": "bucharest",
    "city": "Bucharest",
    "country": "Romania",
    "market": "Europe",
    "lat": 44.4268,
    "lng": 26.1025
  },
  {
    "id": "budapest",
    "city": "Budapest",
    "country": "Hungary",
    "market": "Europe",
    "lat": 47.4979,
    "lng": 19.0402
  },
  {
    "id": "prague",
    "city": "Prague",
    "country": "Czech Republic",
    "market": "Europe",
    "lat": 50.0755,
    "lng": 14.4378
  },
  {
    "id": "amsterdam",
    "city": "Amsterdam",
    "country": "Netherlands",
    "market": "Europe",
    "lat": 52.3676,
    "lng": 4.9041
  },
  {
    "id": "brussels",
    "city": "Brussels",
    "country": "Belgium",
    "market": "Europe",
    "lat": 50.8503,
    "lng": 4.3517
  },
  {
    "id": "stockholm",
    "city": "Stockholm",
    "country": "Sweden",
    "market": "Europe",
    "lat": 59.3293,
    "lng": 18.0686
  },
  {
    "id": "lisbon",
    "city": "Lisbon",
    "country": "Portugal",
    "market": "Europe",
    "lat": 38.7223,
    "lng": -9.1393
  },
  {
    "id": "dublin",
    "city": "Dublin",
    "country": "Ireland",
    "market": "Europe",
    "lat": 53.3498,
    "lng": -6.2603
  },
  {
    "id": "copenhagen",
    "city": "Copenhagen",
    "country": "Denmark",
    "market": "Europe",
    "lat": 55.6761,
    "lng": 12.5683
  },
  {
    "id": "oslo",
    "city": "Oslo",
    "country": "Norway",
    "market": "Europe",
    "lat": 59.9139,
    "lng": 10.7522
  },
  {
    "id": "helsinki",
    "city": "Helsinki",
    "country": "Finland",
    "market": "Europe",
    "lat": 60.1699,
    "lng": 24.9384
  },
  {
    "id": "zurich",
    "city": "Zurich",
    "country": "Switzerland",
    "market": "Europe",
    "lat": 47.3769,
    "lng": 8.5417
  },
  {
    "id": "frankfurt",
    "city": "Frankfurt",
    "country": "Germany",
    "market": "Europe",
    "lat": 50.1109,
    "lng": 8.6821
  },
  {
    "id": "cologne",
    "city": "Cologne",
    "country": "Germany",
    "market": "Europe",
    "lat": 50.9375,
    "lng": 6.9603
  },
  {
    "id": "lyon",
    "city": "Lyon",
    "country": "France",
    "market": "Europe",
    "lat": 45.764,
    "lng": 4.8357
  },
  {
    "id": "marseille",
    "city": "Marseille",
    "country": "France",
    "market": "Europe",
    "lat": 43.2965,
    "lng": 5.3698
  },
  {
    "id": "valencia",
    "city": "Valencia",
    "country": "Spain",
    "market": "Europe",
    "lat": 39.4699,
    "lng": -0.3763
  },
  {
    "id": "new-york",
    "city": "New York",
    "state": "NY",
    "country": "United States",
    "market": "United States",
    "lat": 40.7128,
    "lng": -74.006
  },
  {
    "id": "los-angeles",
    "city": "Los Angeles",
    "state": "CA",
    "country": "United States",
    "market": "United States",
    "lat": 34.0522,
    "lng": -118.2437
  },
  {
    "id": "chicago",
    "city": "Chicago",
    "state": "IL",
    "country": "United States",
    "market": "United States",
    "lat": 41.8781,
    "lng": -87.6298
  },
  {
    "id": "houston",
    "city": "Houston",
    "state": "TX",
    "country": "United States",
    "market": "United States",
    "lat": 29.7604,
    "lng": -95.3698
  },
  {
    "id": "phoenix",
    "city": "Phoenix",
    "state": "AZ",
    "country": "United States",
    "market": "United States",
    "lat": 33.4484,
    "lng": -112.074
  },
  {
    "id": "philadelphia",
    "city": "Philadelphia",
    "state": "PA",
    "country": "United States",
    "market": "United States",
    "lat": 39.9526,
    "lng": -75.1652
  },
  {
    "id": "san-antonio",
    "city": "San Antonio",
    "state": "TX",
    "country": "United States",
    "market": "United States",
    "lat": 29.4241,
    "lng": -98.4936
  },
  {
    "id": "san-diego",
    "city": "San Diego",
    "state": "CA",
    "country": "United States",
    "market": "United States",
    "lat": 32.7157,
    "lng": -117.1611
  },
  {
    "id": "dallas",
    "city": "Dallas",
    "state": "TX",
    "country": "United States",
    "market": "United States",
    "lat": 32.7767,
    "lng": -96.797
  },
  {
    "id": "jacksonville",
    "city": "Jacksonville",
    "state": "FL",
    "country": "United States",
    "market": "United States",
    "lat": 30.3322,
    "lng": -81.6557
  },
  {
    "id": "fort-worth",
    "city": "Fort Worth",
    "state": "TX",
    "country": "United States",
    "market": "United States",
    "lat": 32.7555,
    "lng": -97.3308
  },
  {
    "id": "san-jose",
    "city": "San Jose",
    "state": "CA",
    "country": "United States",
    "market": "United States",
    "lat": 37.3382,
    "lng": -121.8863
  },
  {
    "id": "austin",
    "city": "Austin",
    "state": "TX",
    "country": "United States",
    "market": "United States",
    "lat": 30.2672,
    "lng": -97.7431
  },
  {
    "id": "charlotte",
    "city": "Charlotte",
    "state": "NC",
    "country": "United States",
    "market": "United States",
    "lat": 35.2271,
    "lng": -80.8431
  },
  {
    "id": "columbus",
    "city": "Columbus",
    "state": "OH",
    "country": "United States",
    "market": "United States",
    "lat": 39.9612,
    "lng": -82.9988
  },
  {
    "id": "toronto",
    "city": "Toronto",
    "state": "ON",
    "country": "Canada",
    "market": "Canada",
    "lat": 43.6532,
    "lng": -79.3832
  },
  {
    "id": "montreal",
    "city": "Montreal",
    "state": "QC",
    "country": "Canada",
    "market": "Canada",
    "lat": 45.5017,
    "lng": -73.5673
  },
  {
    "id": "sydney",
    "city": "Sydney",
    "state": "NSW",
    "country": "Australia",
    "market": "Australia",
    "lat": -33.8688,
    "lng": 151.2093
  },
  {
    "id": "melbourne",
    "city": "Melbourne",
    "state": "VIC",
    "country": "Australia",
    "market": "Australia",
    "lat": -37.8136,
    "lng": 144.9631
  }
]
