[
  {
    "id": "london",
    "city": "London",
    "country": "United Kingdom",
    "market": "Europe",
    "lat": 51.5074,
    "lng": -0.1278
  },
  {
    "id": "istanbul",
    "city": "Istanbul",
    "country": "Turkey",
    "market": "Europe",
    "lat": 41.0082,
    "lng": 28.9784
  },
  {
    "id": "paris",
    "city": "Paris",
    "country": "France",
    "market": "Europe",
    "lat": 48.8566,
    "lng": 2.3522
  },
  {
    "id": "madrid",
    "city": "Madrid",
    "country": "Spain",
    "market": "Europe",
    "lat": 40.4168,
    "lng": -3.7038
  },
  {
    "id": "berlin",
    "city": "Berlin",
    "country": "Germany",
    "market": "Europe",
    "lat": 52.52,
    "lng": 13.405
  },
  {
    "id": "rome",
    "city": "Rome",
    "country": "Italy",
    "market": "Europe",
    "lat": 41.9028,
    "lng": 12.4964
  },
  {
    "id": "barcelona",
    "city": "Barcelona",
    "country": "Spain",
    "market": "Europe",
    "lat": 41.3874,
    "lng": 2.1686
  },
  {
    "id": "milan",
    "city": "Milan",
    "country": "Italy",
    "market": "Europe",
    "lat": 45.4642,
    "lng": 9.19
  },
  {
    "id": "naples",
    "city": "Naples",
    "country": "Italy",
    "market": "Europe",
    "lat": 40.8518,
    "lng": 14.2681
  },
  {
    "id": "athens",
    "city": "Athens",
    "country": "Greece",
    "market": "Europe",
    "lat": 37.9838,
    "lng": 23.7275
  },
  {
    "id": "hamburg",
    "city": "Hamburg",
    "country": "Germany",
    "market": "Europe",
    "lat": 53.5511,
    "lng": 9.9937
  },
  {
    "id": "munich",
    "city": "Munich",
    "country": "Germany",
    "market": "Europe",
    "lat": 48.1351,
    "lng": 11.582
  },
  {
    "id": "vienna",
    "city": "Vienna",
    "country": "Austria",
    "market": "Europe",
    "lat": 48.2082,
    "lng": 16.3738
  },
  {
    "id": "warsaw",
    "city": "Warsaw",
    "country": "Poland",
    "market": "Europe",
    "lat": 52.2297,
    "lng": 21.0122
  },
  {
    "id": "bucharest",
    "city": "Bucharest",
    "country": "Romania",
    "market": "Europe",
    "lat": 44.4268,
    "lng": 26.1025
  },
  {
    "id": "budapest",
    "city": "Budapest",
    "country": "Hungary",
    "market": "Europe",
    "lat": 47.4979,
    "lng": 19.0402
  },
  {
    "id": "prague",
    "city": "Prague",
    "country": "Czech Republic",
    "market": "Europe",
    "lat": 50.0755,
    "lng": 14.4378
  },
  {
    "id": "amsterdam",
    "city": "Amsterdam",
    "country": "Netherlands",
    "market": "Europe",
    "lat": 52.3676,
    "lng": 4.9041
  },
  {
    "id": "brussels",
    "city": "Brussels",
    "country": "Belgium",
    "market": "Europe",
    "lat": 50.8503,
    "lng": 4.3517
  },
  {
    "id": "stockholm",
    "city": "Stockholm",
    "country": "Sweden",
    "market": "Europe",
    "lat": 59.3293,
    "lng": 18.0686
  },
  {
    "id": "new-york",
    "city": "New York",
    "state": "NY",
    "country": "United States",
    "market": "United States",
    "lat": 40.7128,
    "lng": -74.006
  },
  {
    "id": "los-angeles",
    "city": "Los Angeles",
    "state": "CA",
    "country": "United States",
    "market": "United States",
    "lat": 34.0522,
    "lng": -118.2437
  },
  {
    "id": "chicago",
    "city": "Chicago",
    "state": "IL",
    "country": "United States",
    "market": "United States",
    "lat": 41.8781,
    "lng": -87.6298
  },
  {
    "id": "houston",
    "city": "Houston",
    "state": "TX",
    "country": "United States",
    "market": "United States",
    "lat": 29.7604,
    "lng": -95.3698
  },
  {
    "id": "phoenix",
    "city": "Phoenix",
    "state": "AZ",
    "country": "United States",
    "market": "United States",
    "lat": 33.4484,
    "lng": -112.074
  },
  {
    "id": "philadelphia",
    "city": "Philadelphia",
    "state": "PA",
    "country": "United States",
    "market": "United States",
    "lat": 39.9526,
    "lng": -75.1652
  },
  {
    "id": "san-antonio",
    "city": "San Antonio",
    "state": "TX",
    "country": "United States",
    "market": "United States",
    "lat": 29.4241,
    "lng": -98.4936
  },
  {
    "id": "san-diego",
    "city": "San Diego",
    "state": "CA",
    "country": "United States",
    "market": "United States",
    "lat": 32.7157,
    "lng": -117.1611
  },
  {
    "id": "dallas",
    "city": "Dallas",
    "state": "TX",
    "country": "United States",
    "market": "United States",
    "lat": 32.7767,
    "lng": -96.797
  },
  {
    "id": "jacksonville",
    "city": "Jacksonville",
    "state": "FL",
    "country": "United States",
    "market": "United States",
    "lat": 30.3322,
    "lng": -81.6557
  },
  {
    "id": "fort-worth",
    "city": "Fort Worth",
    "state": "TX",
    "country": "United States",
    "market": "United States",
    "lat": 32.7555,
    "lng": -97.3308
  },
  {
    "id": "san-jose",
    "city": "San Jose",
    "state": "CA",
    "country": "United States",
    "market": "United States",
    "lat": 37.3382,
    "lng": -121.8863
  },
  {
    "id": "austin",
    "city": "Austin",
    "state": "TX",
    "country": "United States",
    "market": "United States",
    "lat": 30.2672,
    "lng": -97.7431
  },
  {
    "id": "charlotte",
    "city": "Charlotte",
    "state": "NC",
    "country": "United States",
    "market": "United States",
    "lat": 35.2271,
    "lng": -80.8431
  },
  {
    "id": "columbus",
    "city": "Columbus",
    "state": "OH",
    "country": "United States",
    "market": "United States",
    "lat": 39.9612,
    "lng": -82.9988
  },
  {
    "id": "toronto",
    "city": "Toronto",
    "state": "ON",
    "country": "Canada",
    "market": "Canada",
    "lat": 43.6532,
    "lng": -79.3832
  },
  {
    "id": "montreal",
    "city": "Montreal",
    "state": "QC",
    "country": "Canada",
    "market": "Canada",
    "lat": 45.5017,
    "lng": -73.5673
  },
  {
    "id": "calgary",
    "city": "Calgary",
    "state": "AB",
    "country": "Canada",
    "market": "Canada",
    "lat": 51.0447,
    "lng": -114.0719
  },
  {
    "id": "ottawa",
    "city": "Ottawa",
    "state": "ON",
    "country": "Canada",
    "market": "Canada",
    "lat": 45.4215,
    "lng": -75.6972
  },
  {
    "id": "edmonton",
    "city": "Edmonton",
    "state": "AB",
    "country": "Canada",
    "market": "Canada",
    "lat": 53.5461,
    "lng": -113.4938
  },
  {
    "id": "winnipeg",
    "city": "Winnipeg",
    "state": "MB",
    "country": "Canada",
    "market": "Canada",
    "lat": 49.8951,
    "lng": -97.1384
  },
  {
    "id": "mississauga",
    "city": "Mississauga",
    "state": "ON",
    "country": "Canada",
    "market": "Canada",
    "lat": 43.589,
    "lng": -79.6441
  },
  {
    "id": "vancouver",
    "city": "Vancouver",
    "state": "BC",
    "country": "Canada",
    "market": "Canada",
    "lat": 49.2827,
    "lng": -123.1207
  },
  {
    "id": "sydney",
    "city": "Sydney",
    "state": "NSW",
    "country": "Australia",
    "market": "Australia",
    "lat": -33.8688,
    "lng": 151.2093
  },
  {
    "id": "melbourne",
    "city": "Melbourne",
    "state": "VIC",
    "country": "Australia",
    "market": "Australia",
    "lat": -37.8136,
    "lng": 144.9631
  },
  {
    "id": "brisbane",
    "city": "Brisbane",
    "state": "QLD",
    "country": "Australia",
    "market": "Australia",
    "lat": -27.4698,
    "lng": 153.0251
  },
  {
    "id": "perth",
    "city": "Perth",
    "state": "WA",
    "country": "Australia",
    "market": "Australia",
    "lat": -31.9523,
    "lng": 115.8613
  },
  {
    "id": "adelaide",
    "city": "Adelaide",
    "state": "SA",
    "country": "Australia",
    "market": "Australia",
    "lat": -34.9285,
    "lng": 138.6007
  },
  {
    "id": "gold-coast",
    "city": "Gold Coast",
    "state": "QLD",
    "country": "Australia",
    "market": "Australia",
    "lat": -28.0167,
    "lng": 153.4
  },
  {
    "id": "canberra",
    "city": "Canberra",
    "state": "ACT",
    "country": "Australia",
    "market": "Australia",
    "lat": -35.2809,
    "lng": 149.13
  }
]
